{
  "Routes": [
    {
      "id": "south-corridor-3",
      "name": "南部走廊（高雄→屏東→台東）",
      "type": "south-corridor",
      "recommended_days": 3,
      "supported_start_stations": [
        "高雄車站",
        "屏東車站",
        "台東車站"
      ]
    }
  ],
  "Waypoints": [
    {
      "id": "wp3-khh",
      "name": "高雄車站",
      "lat": 22.6394,
      "lng": 120.3024
    },
    {
      "id": "wp3-pif",
      "name": "屏東車站",
      "lat": 22.6698,
      "lng": 120.4862
    },
    {
      "id": "wp3-ttt",
      "name": "台東車站",
      "lat": 22.7554,
      "lng": 121.1436
    }
  ],
  "Accommodations": [
    {
      "id": "acc-wp3-khh-ChIJ423mdu4DbjQRzDCb1y6qmtw",
      "waypoint_id": "wp3-khh",
      "name": "旗津道沙灘酒店 In Young Hotel",
      "subType": "hotel",
      "budget_tier": "mid",
      "price_per_night": 3500,
      "lat": 22.610369,
      "lng": 120.268195,
      "place_id": "ChIJ423mdu4DbjQRzDCb1y6qmtw",
      "address": "805, Taiwan, Kaohsiung City, Qijin District, Qijin 3rd Rd, 1050號3樓"
    },
    {
      "id": "acc-wp3-khh-ChIJC7eBmSkdbjQRTfn4OvKzK8E",
      "waypoint_id": "wp3-khh",
      "name": "Orange House Business hotel",
      "subType": "hotel",
      "budget_tier": "mid",
      "price_per_night": 3500,
      "lat": 22.563437,
      "lng": 120.348139,
      "place_id": "ChIJC7eBmSkdbjQRTfn4OvKzK8E",
      "address": "812, Taiwan, Kaohsiung City, Siaogang District, Daye N Rd, 300號 No. 300號"
    },
    {
      "id": "acc-wp3-khh-ChIJfRpPbAQFbjQRVh9-e2HIy50",
      "waypoint_id": "wp3-khh",
      "name": "Long Siang Hotel",
      "subType": "hotel",
      "budget_tier": "mid",
      "price_per_night": 3500,
      "lat": 22.6643753,
      "lng": 120.3047256,
      "place_id": "ChIJfRpPbAQFbjQRVh9-e2HIy50",
      "address": "No. 75號, Liwen Rd, Zuoying District, Kaohsiung City, Taiwan 813"
    },
    {
      "id": "acc-wp3-khh-ChIJAXvzvDkbbjQRQ5GYGYi_CI0",
      "waypoint_id": "wp3-khh",
      "name": "麗馨精品商旅鳳山館",
      "subType": "hotel",
      "budget_tier": "mid",
      "price_per_night": 3500,
      "lat": 22.629618,
      "lng": 120.357087,
      "place_id": "ChIJAXvzvDkbbjQRQ5GYGYi_CI0",
      "address": "No. 77號, Caogong Rd, Fengshan District, Kaohsiung City, Taiwan 830"
    },
    {
      "id": "acc-wp3-khh-ChIJmVvOYdocbjQRhpHhu_aA4cw",
      "waypoint_id": "wp3-khh",
      "name": "The Riverside Hotel International",
      "subType": "hotel",
      "budget_tier": "mid",
      "price_per_night": 3500,
      "lat": 22.5697074,
      "lng": 120.3563511,
      "place_id": "ChIJmVvOYdocbjQRhpHhu_aA4cw",
      "address": "No. 447號, Hongping Rd, Siaogang District, Kaohsiung City, Taiwan 812"
    },
    {
      "id": "acc-wp3-khh-ChIJ-49FB9UcbjQR-M9pKewQEqc",
      "waypoint_id": "wp3-khh",
      "name": "Kaohsiung International Club",
      "subType": "hotel",
      "budget_tier": "mid",
      "price_per_night": 3500,
      "lat": 22.5659992,
      "lng": 120.3464873,
      "place_id": "ChIJ-49FB9UcbjQR-M9pKewQEqc",
      "address": "No. 436, Daye N Rd, Siaogang District, Kaohsiung City, Taiwan 812"
    },
    {
      "id": "acc-wp3-khh-ChIJn386Yn0DbjQRmNUpk9tKvUs",
      "waypoint_id": "wp3-khh",
      "name": "旅悅 國際青年旅館 DreamWell Hostel | Kaohsiung | Hotel | 住宿",
      "subType": "hostel",
      "budget_tier": "low",
      "price_per_night": 1400,
      "lat": 22.614619,
      "lng": 120.307044,
      "place_id": "ChIJn386Yn0DbjQRmNUpk9tKvUs",
      "address": "806, Taiwan, Kaohsiung City, Cianjhen District, Sanduo 3rd Rd, 211號3樓"
    },
    {
      "id": "acc-wp3-khh-ChIJWfc89fkEbjQRpg7BLJTCZq4",
      "waypoint_id": "wp3-khh",
      "name": "Paper Plane Hostel",
      "subType": "hostel",
      "budget_tier": "low",
      "price_per_night": 1400,
      "lat": 22.649068,
      "lng": 120.303062,
      "place_id": "ChIJWfc89fkEbjQRpg7BLJTCZq4",
      "address": "80743, Taiwan, Kaohsiung City, Sanmin District, 博愛一路287號10樓"
    },
    {
      "id": "acc-wp3-khh-ChIJlRSb5n0DbjQRAqUdKHN0LGg",
      "waypoint_id": "wp3-khh",
      "name": "飛行家青年旅館FLYINN HOSTEL",
      "subType": "hostel",
      "budget_tier": "low",
      "price_per_night": 1400,
      "lat": 22.6143622,
      "lng": 120.3035645,
      "place_id": "ChIJlRSb5n0DbjQRAqUdKHN0LGg",
      "address": "802, Taiwan, Kaohsiung City, Lingya District, Renyi St, 2-4號目前已無提供早餐。 （旅店非24小時服務，訂房請於服務時間早上7:30-晚上11:00間來電"
    },
    {
      "id": "acc-wp3-khh-ChIJ7Qi5E4IEbjQRpVHVgpwP44k",
      "waypoint_id": "wp3-khh",
      "name": "Backpacker 41 Hostel - Kaohsiung",
      "subType": "hostel",
      "budget_tier": "low",
      "price_per_night": 1400,
      "lat": 22.6161429,
      "lng": 120.3042166,
      "place_id": "ChIJ7Qi5E4IEbjQRpVHVgpwP44k",
      "address": "No. 39, Lane 261, Siweisan Rd, Lingya District, Kaohsiung City, Taiwan 802"
    },
    {
      "id": "acc-wp3-khh-ChIJYUQKz_QEbjQRnF1JesGbK9M",
      "waypoint_id": "wp3-khh",
      "name": "巢鴨青年館",
      "subType": "hostel",
      "budget_tier": "low",
      "price_per_night": 1400,
      "lat": 22.6391111,
      "lng": 120.3006551,
      "place_id": "ChIJYUQKz_QEbjQRnF1JesGbK9M",
      "address": "No. 19-3號, Lane 46, Jianguosan Rd, Sanmin District, Kaohsiung City, Taiwan 807"
    },
    {
      "id": "acc-wp3-khh-ChIJ3_E8J4wEbjQRaCjWDiZB6KA",
      "waypoint_id": "wp3-khh",
      "name": "Master Chitow Hostel",
      "subType": "hostel",
      "budget_tier": "low",
      "price_per_night": 1400,
      "lat": 22.6313904,
      "lng": 120.3051692,
      "place_id": "ChIJ3_E8J4wEbjQRaCjWDiZB6KA",
      "address": "No. 128號, Zhongzheng 3rd Rd, Sinsing District, Kaohsiung City, Taiwan 800"
    },
    {
      "id": "acc-wp3-pif-ChIJB_vUJPE9bjQRlNR9_eaD9E8",
      "waypoint_id": "wp3-pif",
      "name": "同合農科商務會館",
      "subType": "hotel",
      "budget_tier": "mid",
      "price_per_night": 3500,
      "lat": 22.7153682,
      "lng": 120.5360088,
      "place_id": "ChIJB_vUJPE9bjQRlNR9_eaD9E8",
      "address": "No. 5號, Yanfa 1st Rd, Changzhi Township, Pingtung County, Taiwan 908"
    },
    {
      "id": "acc-wp3-pif-ChIJLeFbZ58XbjQRyx17_TTQAQ4",
      "waypoint_id": "wp3-pif",
      "name": "六本木",
      "subType": "hotel",
      "budget_tier": "mid",
      "price_per_night": 3500,
      "lat": 22.6842852,
      "lng": 120.4861028,
      "place_id": "ChIJLeFbZ58XbjQRyx17_TTQAQ4",
      "address": "No. 132, Gongzheng 4th St, Pingtung City, Pingtung County, Taiwan 900"
    },
    {
      "id": "acc-wp3-pif-ChIJacWF1W8WbjQRNnv_26ybrts",
      "waypoint_id": "wp3-pif",
      "name": "震點樂商務汽車旅館",
      "subType": "hotel",
      "budget_tier": "mid",
      "price_per_night": 3500,
      "lat": 22.7360932,
      "lng": 120.4954759,
      "place_id": "ChIJacWF1W8WbjQRNnv_26ybrts",
      "address": "No. 17號, Linsen Rd, Jiuru Township, Pingtung County, Taiwan 904"
    },
    {
      "id": "acc-wp3-pif-ChIJVdcvHvQjbjQRSImrHDfKGp0",
      "waypoint_id": "wp3-pif",
      "name": "余你相寓旅宿（訂房Line:@meetyu）",
      "subType": "hotel",
      "budget_tier": "mid",
      "price_per_night": 3500,
      "lat": 22.6203005,
      "lng": 120.5600894,
      "place_id": "ChIJVdcvHvQjbjQRSImrHDfKGp0",
      "address": "No. 517之1號, Shengli Rd, Neipu Township, Pingtung County, Taiwan 912"
    },
    {
      "id": "acc-wp3-pif-ChIJYfJRj7gbbjQRe8BUC8UKLV8",
      "waypoint_id": "wp3-pif",
      "name": "花鄉商務汽車旅館 大寮店",
      "subType": "hotel",
      "budget_tier": "mid",
      "price_per_night": 3500,
      "lat": 22.6222863,
      "lng": 120.4117798,
      "place_id": "ChIJYfJRj7gbbjQRe8BUC8UKLV8",
      "address": "No. 397號, Section 3, Guangming Rd, Daliao District, Kaohsiung City, Taiwan 831"
    },
    {
      "id": "acc-wp3-pif-ChIJdRwEkoMXbjQREXS0Y3fLgO4",
      "waypoint_id": "wp3-pif",
      "name": "Tailun Inn",
      "subType": "hotel",
      "budget_tier": "mid",
      "price_per_night": 3500,
      "lat": 22.6700985,
      "lng": 120.4868993,
      "place_id": "ChIJdRwEkoMXbjQREXS0Y3fLgO4",
      "address": "No. 159-1, Minzu Rd, Pingtung City, Pingtung County, Taiwan 900"
    },
    {
      "id": "acc-wp3-pif-ChIJmeipwcgjbjQRPCvn0RRmJww",
      "waypoint_id": "wp3-pif",
      "name": "屏東德旅店 De Hostel [ 屏東住宿 / 設計民宿 ]",
      "subType": "hostel",
      "budget_tier": "low",
      "price_per_night": 1400,
      "lat": 22.5865967,
      "lng": 120.5405668,
      "place_id": "ChIJmeipwcgjbjQRPCvn0RRmJww",
      "address": "No. 22 號, Fengming Rd, Zhutian Township, Pingtung County, Taiwan 911"
    },
    {
      "id": "acc-wp3-pif-ChIJg3Zi8HrlcTQReJzAzYOajm8",
      "waypoint_id": "wp3-pif",
      "name": "Sunny Hostel Pingdong",
      "subType": "hostel",
      "budget_tier": "low",
      "price_per_night": 1400,
      "lat": 22.6558442,
      "lng": 120.4703258,
      "place_id": "ChIJg3Zi8HrlcTQReJzAzYOajm8",
      "address": "900, Taiwan, Pingtung County, Pingtung City, The blessingCunzhongshanlu 84"
    },
    {
      "id": "acc-wp3-pif-ChIJYWAZWxsRbjQRF3UFQLstK-Y",
      "waypoint_id": "wp3-pif",
      "name": "E-DA ROYAL HOTEL",
      "subType": "hostel",
      "budget_tier": "low",
      "price_per_night": 1400,
      "lat": 22.7298023,
      "lng": 120.4014335,
      "place_id": "ChIJYWAZWxsRbjQRF3UFQLstK-Y",
      "address": "No. 153號, Section 1, Xuecheng Rd, Dashu District, Kaohsiung City, Taiwan 840"
    },
    {
      "id": "acc-wp3-pif-ChIJ-aCqShsRbjQRBhZlwopEE2Y",
      "waypoint_id": "wp3-pif",
      "name": "E-DA Skylark Hotel",
      "subType": "hostel",
      "budget_tier": "low",
      "price_per_night": 1400,
      "lat": 22.7309051,
      "lng": 120.4011236,
      "place_id": "ChIJ-aCqShsRbjQRBhZlwopEE2Y",
      "address": "No. 100號, Yida 8th St, Dashu District, Kaohsiung City, Taiwan 840"
    },
    {
      "id": "acc-wp3-pif-ChIJPynD3p8XbjQReWGER8knM8E",
      "waypoint_id": "wp3-pif",
      "name": "阿曼城市汽車旅館有限公司",
      "subType": "hostel",
      "budget_tier": "low",
      "price_per_night": 1400,
      "lat": 22.6841421,
      "lng": 120.4822718,
      "place_id": "ChIJPynD3p8XbjQReWGER8knM8E",
      "address": "No. 22號, Lane 366, Bo'ai Rd, Pingtung City, Pingtung County, Taiwan 900"
    },
    {
      "id": "acc-wp3-pif-ChIJq7rc5dcZbjQREbICu_wCfyk",
      "waypoint_id": "wp3-pif",
      "name": "薇風精品汽車旅館屏東分館",
      "subType": "hostel",
      "budget_tier": "low",
      "price_per_night": 1400,
      "lat": 22.6657794,
      "lng": 120.4713635,
      "place_id": "ChIJq7rc5dcZbjQREbICu_wCfyk",
      "address": "No. 1號, Lane 3, Dafeng Rd, Pingtung City, Pingtung County, Taiwan 900"
    },
    {
      "id": "acc-wp3-ttt-ChIJUxezHXa5bzQRTTp6dlw_Z0I",
      "waypoint_id": "wp3-ttt",
      "name": "娜路彎會館",
      "subType": "hotel",
      "budget_tier": "mid",
      "price_per_night": 3500,
      "lat": 22.7685889,
      "lng": 121.1247604,
      "place_id": "ChIJUxezHXa5bzQRTTp6dlw_Z0I",
      "address": "95065, Taiwan, Taitung County, Taitung City, 中興路二段385號"
    },
    {
      "id": "acc-wp3-ttt-ChIJizh1N0i5bzQR8xgTWXiQPps",
      "waypoint_id": "wp3-ttt",
      "name": "Kaishen Starlight Hotel",
      "subType": "hotel",
      "budget_tier": "mid",
      "price_per_night": 3500,
      "lat": 22.756073,
      "lng": 121.161818,
      "place_id": "ChIJizh1N0i5bzQR8xgTWXiQPps",
      "address": "No. 38, Section 1, Linhai Rd, Taitung City, Taitung County, Taiwan 950"
    },
    {
      "id": "acc-wp3-ttt-ChIJ3Wu1Fz-5bzQRlbKJO1FoUhI",
      "waypoint_id": "wp3-ttt",
      "name": "蒙地拿旅店Modena B&B",
      "subType": "hotel",
      "budget_tier": "mid",
      "price_per_night": 3500,
      "lat": 22.7551733,
      "lng": 121.1524523,
      "place_id": "ChIJ3Wu1Fz-5bzQRlbKJO1FoUhI",
      "address": "No. 36號, Lane 376, Section 1, Zhonghua Rd, Taitung City, Taitung County, Taiwan 950"
    },
    {
      "id": "acc-wp3-ttt-ChIJt_i8xj25bzQRA2B78-9rX2w",
      "waypoint_id": "wp3-ttt",
      "name": "Fish Hotel – Taitung",
      "subType": "hotel",
      "budget_tier": "mid",
      "price_per_night": 3500,
      "lat": 22.7510628,
      "lng": 121.1501633,
      "place_id": "ChIJt_i8xj25bzQRA2B78-9rX2w",
      "address": "No. 537號, Section 1, Zhonghua Rd, Taitung City, Taitung County, Taiwan 950"
    },
    {
      "id": "acc-wp3-ttt-ChIJLespYtK7bzQRMa5bKHM8DFI",
      "waypoint_id": "wp3-ttt",
      "name": "娜路彎花園酒店",
      "subType": "hotel",
      "budget_tier": "mid",
      "price_per_night": 3500,
      "lat": 22.7931898,
      "lng": 121.1293477,
      "place_id": "ChIJLespYtK7bzQRMa5bKHM8DFI",
      "address": "No. 77號, Xinxing Rd, Taitung City, Taitung County, Taiwan 950"
    },
    {
      "id": "acc-wp3-ttt-ChIJYfqS3zi5bzQRxNBfjXg2HNU",
      "waypoint_id": "wp3-ttt",
      "name": "Norden Ruder Hostel Taitung",
      "subType": "hotel",
      "budget_tier": "mid",
      "price_per_night": 3500,
      "lat": 22.7538513,
      "lng": 121.155056,
      "place_id": "ChIJYfqS3zi5bzQRxNBfjXg2HNU",
      "address": "No. 162號, Guangdong Rd, Taitung City, Taitung County, Taiwan 950"
    },
    {
      "id": "acc-wp3-ttt-ChIJb6eu3jK6bzQRqI-qOpIEATs",
      "waypoint_id": "wp3-ttt",
      "name": "On My Way Taitung Hostel & Backpacker",
      "subType": "hostel",
      "budget_tier": "low",
      "price_per_night": 1400,
      "lat": 22.7974044,
      "lng": 121.1241167,
      "place_id": "ChIJb6eu3jK6bzQRqI-qOpIEATs",
      "address": "No. 30, Lane 102, Anhe Rd, Taitung City, Taitung County, Taiwan 95058"
    },
    {
      "id": "acc-wp3-ttt-ChIJYfqS3zi5bzQRxNBfjXg2HNU",
      "waypoint_id": "wp3-ttt",
      "name": "Norden Ruder Hostel Taitung",
      "subType": "hostel",
      "budget_tier": "low",
      "price_per_night": 1400,
      "lat": 22.7538513,
      "lng": 121.155056,
      "place_id": "ChIJYfqS3zi5bzQRxNBfjXg2HNU",
      "address": "No. 162號, Guangdong Rd, Taitung City, Taitung County, Taiwan 950"
    },
    {
      "id": "acc-wp3-ttt-ChIJ2aZOoPy5bzQRwx_vCWjCrbs",
      "waypoint_id": "wp3-ttt",
      "name": "烏托邦國際青年旅舍 UTOPIA HOSTEL(台東背包客棧)合法民宿1584號",
      "subType": "hostel",
      "budget_tier": "low",
      "price_per_night": 1400,
      "lat": 22.7592816,
      "lng": 121.1381765,
      "place_id": "ChIJ2aZOoPy5bzQRwx_vCWjCrbs",
      "address": "No. 711號, Lane 805, Kaifeng St, Taitung City, Taitung County, Taiwan 950"
    },
    {
      "id": "acc-wp3-ttt-ChIJUcmmmEK5bzQRxLvh8E3Kmo8",
      "waypoint_id": "wp3-ttt",
      "name": "Navel Orange Hostel",
      "subType": "hostel",
      "budget_tier": "low",
      "price_per_night": 1400,
      "lat": 22.767092,
      "lng": 121.148552,
      "place_id": "ChIJUcmmmEK5bzQRxLvh8E3Kmo8",
      "address": "No. 8, Rener St, Taitung City, Taitung County, Taiwan 950"
    },
    {
      "id": "acc-wp3-ttt-ChIJ02SY9hi5bzQREfoWFWI-lo8",
      "waypoint_id": "wp3-ttt",
      "name": "1981hostel(背包客棧)",
      "subType": "hostel",
      "budget_tier": "low",
      "price_per_night": 1400,
      "lat": 22.762089,
      "lng": 121.1453211,
      "place_id": "ChIJ02SY9hi5bzQREfoWFWI-lo8",
      "address": "No. 28號, Shanghai St, Taitung City, Taitung County, Taiwan 950"
    },
    {
      "id": "acc-wp3-ttt-ChIJu0WKJDm7bzQRURsFM9wSp4E",
      "waypoint_id": "wp3-ttt",
      "name": "Dawn Stroll B&B, Taitung Town",
      "subType": "hostel",
      "budget_tier": "low",
      "price_per_night": 1400,
      "lat": 22.7903588,
      "lng": 121.1245274,
      "place_id": "ChIJu0WKJDm7bzQRURsFM9wSp4E",
      "address": "950010, Taiwan, Taitung County, Taitung City, 新站一街50號"
    }
  ],
  "Restaurants": [
    {
      "id": "res-wp3-khh-ChIJW8ThIHYEbjQR8k12HL3R1uY",
      "waypoint_id": "wp3-khh",
      "name": "The Pier2 Art Center",
      "diet_type": "convenience-store",
      "price_tier": "standard",
      "estimated_cost": 180,
      "lat": 22.6199803,
      "lng": 120.2815287,
      "place_id": "ChIJW8ThIHYEbjQR8k12HL3R1uY",
      "address": "No. 1號, Dayong Rd, Yancheng District, Kaohsiung City, Taiwan 803"
    },
    {
      "id": "res-wp3-khh-ChIJE6IXZ4cEbjQRHrZL1TcpsAI",
      "waypoint_id": "wp3-khh",
      "name": "Family Mart",
      "diet_type": "convenience-store",
      "price_tier": "standard",
      "estimated_cost": 180,
      "lat": 22.6235598,
      "lng": 120.2978971,
      "place_id": "ChIJE6IXZ4cEbjQRHrZL1TcpsAI",
      "address": "No. 21號, Jhonghua 3rd Rd, Qianjin District, Kaohsiung City, Taiwan 801"
    },
    {
      "id": "res-wp3-khh-ChIJXbGKVWIEbjQR_54ZUuSjycA",
      "waypoint_id": "wp3-khh",
      "name": "全家便利商店-高雄榮安店",
      "diet_type": "convenience-store",
      "price_tier": "standard",
      "estimated_cost": 180,
      "lat": 22.6308156,
      "lng": 120.2933387,
      "place_id": "ChIJXbGKVWIEbjQR_54ZUuSjycA",
      "address": "No. 60號, Ziqiang 1st Rd, Qianjin District, Kaohsiung City, Taiwan 801"
    },
    {
      "id": "res-wp3-khh-ChIJ4ZN-0WcEbjQRc8vsKCql1D4",
      "waypoint_id": "wp3-khh",
      "name": "7-ELEVEN 中都門市",
      "diet_type": "convenience-store",
      "price_tier": "standard",
      "estimated_cost": 180,
      "lat": 22.6381866,
      "lng": 120.2864072,
      "place_id": "ChIJ4ZN-0WcEbjQRc8vsKCql1D4",
      "address": "No. 248號, Lixing Rd, Sanmin District, Kaohsiung City, Taiwan 807"
    },
    {
      "id": "res-wp3-khh-ChIJv6L-nJIEbjQR9sRH4mf17ak",
      "waypoint_id": "wp3-khh",
      "name": "全家便利商店-高雄三鳳店",
      "diet_type": "convenience-store",
      "price_tier": "standard",
      "estimated_cost": 180,
      "lat": 22.634626,
      "lng": 120.2936561,
      "place_id": "ChIJv6L-nJIEbjQR9sRH4mf17ak",
      "address": "No. 251號, Jhonghua 3rd Rd, Qianjin District, Kaohsiung City, Taiwan 801"
    },
    {
      "id": "res-wp3-khh-ChIJmzqsz3kEbjQRlvFtkTOBSvw",
      "waypoint_id": "wp3-khh",
      "name": "FamilyMart my home",
      "diet_type": "convenience-store",
      "price_tier": "standard",
      "estimated_cost": 180,
      "lat": 22.6264188,
      "lng": 120.2805313,
      "place_id": "ChIJmzqsz3kEbjQRlvFtkTOBSvw",
      "address": "No. 238號, Sinle St, Yancheng District, Kaohsiung City, Taiwan 803"
    },
    {
      "id": "res-wp3-khh-ChIJ6f7_VfQEbjQRRIah-5rBHjA",
      "waypoint_id": "wp3-khh",
      "name": "驛站食堂",
      "diet_type": "restaurant",
      "price_tier": "cheap",
      "estimated_cost": 260,
      "lat": 22.64029,
      "lng": 120.3005824,
      "place_id": "ChIJ6f7_VfQEbjQRRIah-5rBHjA",
      "address": "No. 2號, Tianjin Street, Sanmin District, Kaohsiung City, Taiwan 807"
    },
    {
      "id": "res-wp3-khh-ChIJe9864XAEbjQR87EJntDzgEY",
      "waypoint_id": "wp3-khh",
      "name": "BOOKING",
      "diet_type": "restaurant",
      "price_tier": "cheap",
      "estimated_cost": 260,
      "lat": 22.6265605,
      "lng": 120.2833014,
      "place_id": "ChIJe9864XAEbjQR87EJntDzgEY",
      "address": "No. 177號, Lainan St, Yancheng District, Kaohsiung City, Taiwan 803"
    },
    {
      "id": "res-wp3-khh-ChIJofinrosEbjQR9o7NocGLMU8",
      "waypoint_id": "wp3-khh",
      "name": "韓國先生-春川店 한국선생-춘천",
      "diet_type": "restaurant",
      "price_tier": "cheap",
      "estimated_cost": 260,
      "lat": 22.6345642,
      "lng": 120.3006322,
      "place_id": "ChIJofinrosEbjQR9o7NocGLMU8",
      "address": "No. 33號, Cisian 2nd Rd, Sinsing District, Kaohsiung City, Taiwan 800"
    },
    {
      "id": "res-wp3-khh-ChIJBVLASgAFbjQRblw6qQi7ypU",
      "waypoint_id": "wp3-khh",
      "name": "老四川巴蜀麻辣燙-高雄南屏店",
      "diet_type": "restaurant",
      "price_tier": "cheap",
      "estimated_cost": 260,
      "lat": 22.6605838,
      "lng": 120.3001893,
      "place_id": "ChIJBVLASgAFbjQRblw6qQi7ypU",
      "address": "No. 585、587、589、591號, Nanping Rd, Gushan District, Kaohsiung City, Taiwan 804"
    },
    {
      "id": "res-wp3-khh-ChIJA7wegIAEbjQRnlXRXTUuSW8",
      "waypoint_id": "wp3-khh",
      "name": "BITE 2 EAT",
      "diet_type": "restaurant",
      "price_tier": "cheap",
      "estimated_cost": 260,
      "lat": 22.6195139,
      "lng": 120.3049085,
      "place_id": "ChIJA7wegIAEbjQRnlXRXTUuSW8",
      "address": "No. 105號, Wenheng 2nd Rd, Lingya District, Kaohsiung City, Taiwan 80241"
    },
    {
      "id": "res-wp3-khh-ChIJn-aZvY4EbjQROGrJtAvcibw",
      "waypoint_id": "wp3-khh",
      "name": "Hotel dùa",
      "diet_type": "restaurant",
      "price_tier": "cheap",
      "estimated_cost": 260,
      "lat": 22.6306778,
      "lng": 120.30445,
      "place_id": "ChIJn-aZvY4EbjQROGrJtAvcibw",
      "address": "No. 165號, Linsen 1st Rd, Sinsing District, Kaohsiung City, Taiwan 800"
    },
    {
      "id": "res-wp3-khh-ChIJn-aZvY4EbjQReAIpQ_a9Imc",
      "waypoint_id": "wp3-khh",
      "name": "悅品中餐廳-Hotel dùa 林森館",
      "diet_type": "restaurant",
      "price_tier": "expensive",
      "estimated_cost": 420,
      "lat": 22.6305569,
      "lng": 120.3043135,
      "place_id": "ChIJn-aZvY4EbjQReAIpQ_a9Imc",
      "address": "800, Taiwan, Kaohsiung City, Sinsing District, Linsen 1st Rd, 165號3F"
    },
    {
      "id": "res-wp3-khh-ChIJh-Z5NIcEbjQRWlFKGoWEXIY",
      "waypoint_id": "wp3-khh",
      "name": "Chamonix new Champs Teppanyaki _ Kaohsiung Wufu shop",
      "diet_type": "restaurant",
      "price_tier": "expensive",
      "estimated_cost": 420,
      "lat": 22.6219878,
      "lng": 120.2991991,
      "place_id": "ChIJh-Z5NIcEbjQRWlFKGoWEXIY",
      "address": "No. 29號, Wufu 3rd Rd, Qianjin District, Kaohsiung City, Taiwan 801"
    },
    {
      "id": "res-wp3-khh-ChIJf9FA1AQFbjQR1tTgLbsSjEw",
      "waypoint_id": "wp3-khh",
      "name": "Smokey Joe's Ziyou Branch",
      "diet_type": "restaurant",
      "price_tier": "expensive",
      "estimated_cost": 420,
      "lat": 22.665173,
      "lng": 120.30869,
      "place_id": "ChIJf9FA1AQFbjQR1tTgLbsSjEw",
      "address": "No. 318號, Ziyou 2nd Rd, Zuoying District, Kaohsiung City, Taiwan 813"
    },
    {
      "id": "res-wp3-khh-ChIJv5byCVAEbjQRL1hitP0tQ-0",
      "waypoint_id": "wp3-khh",
      "name": "PASADENA",
      "diet_type": "restaurant",
      "price_tier": "expensive",
      "estimated_cost": 420,
      "lat": 22.6513001,
      "lng": 120.2871327,
      "place_id": "ChIJv5byCVAEbjQRL1hitP0tQ-0",
      "address": "No. 167, Qinghai Rd, Gushan District, Kaohsiung City, Taiwan 804"
    },
    {
      "id": "res-wp3-khh-ChIJEyQF3I0EbjQRlAzmu1ChFLs",
      "waypoint_id": "wp3-khh",
      "name": "Wang Steak Kaohsiung Zhongzheng Branch",
      "diet_type": "restaurant",
      "price_tier": "expensive",
      "estimated_cost": 420,
      "lat": 22.6312667,
      "lng": 120.3071933,
      "place_id": "ChIJEyQF3I0EbjQRlAzmu1ChFLs",
      "address": "No. 88號, Zhongzheng 3rd Rd, Sinsing District, Kaohsiung City, Taiwan 800"
    },
    {
      "id": "res-wp3-khh-ChIJE9mxjgEFbjQRZo6CdWyfRSw",
      "waypoint_id": "wp3-khh",
      "name": "THE LIN",
      "diet_type": "restaurant",
      "price_tier": "expensive",
      "estimated_cost": 420,
      "lat": 22.6599254,
      "lng": 120.3025242,
      "place_id": "ChIJE9mxjgEFbjQRZo6CdWyfRSw",
      "address": "No. 99號, Bo-ai 2nd Rd, Gushan District, Kaohsiung City, Taiwan 804"
    },
    {
      "id": "res-wp3-pif-ChIJA2zqwIMXbjQRNOBNISvZCLU",
      "waypoint_id": "wp3-pif",
      "name": "Kuo-kuang Motor Transport",
      "diet_type": "convenience-store",
      "price_tier": "standard",
      "estimated_cost": 180,
      "lat": 22.6698516,
      "lng": 120.4859707,
      "place_id": "ChIJA2zqwIMXbjQRNOBNISvZCLU",
      "address": "No. 3號, Zhongshan Rd, Pingtung City, Pingtung County, Taiwan 900"
    },
    {
      "id": "res-wp3-pif-ChIJa5LXaJQXbjQRCg30DyZG050",
      "waypoint_id": "wp3-pif",
      "name": "7-ELEVEN 廣豐門市",
      "diet_type": "convenience-store",
      "price_tier": "standard",
      "estimated_cost": 180,
      "lat": 22.6772664,
      "lng": 120.5010778,
      "place_id": "ChIJa5LXaJQXbjQRCg30DyZG050",
      "address": "280-1號, No. 280號, Guangdong Rd, Pingtung City, Pingtung County, Taiwan 900"
    },
    {
      "id": "res-wp3-pif-ChIJOwHh3nAXbjQRyZvVyR8wY4A",
      "waypoint_id": "wp3-pif",
      "name": "7-ELEVEN 同勝門市",
      "diet_type": "convenience-store",
      "price_tier": "standard",
      "estimated_cost": 180,
      "lat": 22.6788854,
      "lng": 120.4748819,
      "place_id": "ChIJOwHh3nAXbjQRyZvVyR8wY4A",
      "address": "900, Taiwan, Pingtung County, Pingtung City, Datong N Rd, 1號1樓勝利路262之2號1樓"
    },
    {
      "id": "res-wp3-pif-ChIJw9T8ongXbjQRX7WHM7HBAU8",
      "waypoint_id": "wp3-pif",
      "name": "全家便利商店-屏東昌賢店",
      "diet_type": "convenience-store",
      "price_tier": "standard",
      "estimated_cost": 180,
      "lat": 22.6669838,
      "lng": 120.4810588,
      "place_id": "ChIJw9T8ongXbjQRX7WHM7HBAU8",
      "address": "No. 63號, Jianmin Rd, Pingtung City, Pingtung County, Taiwan 900"
    },
    {
      "id": "res-wp3-pif-ChIJ4ZJZh5gXbjQRz-dn1uZs0RA",
      "waypoint_id": "wp3-pif",
      "name": "7-ELEVEN 新自孝門市",
      "diet_type": "convenience-store",
      "price_tier": "standard",
      "estimated_cost": 180,
      "lat": 22.6834567,
      "lng": 120.4904661,
      "place_id": "ChIJ4ZJZh5gXbjQRz-dn1uZs0RA",
      "address": "壹樓, No. 476號, Ziyou Rd, Pingtung City, Pingtung County, Taiwan 900"
    },
    {
      "id": "res-wp3-pif-ChIJnZGnzkwYbjQR8cQRPKgSW08",
      "waypoint_id": "wp3-pif",
      "name": "7-ELEVEN 公華門市",
      "diet_type": "convenience-store",
      "price_tier": "standard",
      "estimated_cost": 180,
      "lat": 22.6359726,
      "lng": 120.4826488,
      "place_id": "ChIJnZGnzkwYbjQR8cQRPKgSW08",
      "address": "900, Taiwan, Pingtung County, Pingtung City, Longhua Rd, 152號156號1樓"
    },
    {
      "id": "res-wp3-pif-ChIJ0zwRNJwXbjQRTE4kg95_s7M",
      "waypoint_id": "wp3-pif",
      "name": "莎露眷味洋食",
      "diet_type": "restaurant",
      "price_tier": "cheap",
      "estimated_cost": 260,
      "lat": 22.6786416,
      "lng": 120.4850065,
      "place_id": "ChIJ0zwRNJwXbjQRTE4kg95_s7M",
      "address": "No. 104號, Qingdao St, Pingtung City, Pingtung County, Taiwan 900"
    },
    {
      "id": "res-wp3-pif-ChIJSXiBc58XbjQRhyzuxmWhW54",
      "waypoint_id": "wp3-pif",
      "name": "Chien-Yen Shabu Shabu",
      "diet_type": "restaurant",
      "price_tier": "cheap",
      "estimated_cost": 260,
      "lat": 22.6835036,
      "lng": 120.4847367,
      "place_id": "ChIJSXiBc58XbjQRhyzuxmWhW54",
      "address": "No. 17-1號, Taiyuan Rd, Pingtung City, Pingtung County, Taiwan 900"
    },
    {
      "id": "res-wp3-pif-ChIJOQ5K-5sXbjQRes6nJJmxia4",
      "waypoint_id": "wp3-pif",
      "name": "正筠小籠湯包",
      "diet_type": "restaurant",
      "price_tier": "cheap",
      "estimated_cost": 260,
      "lat": 22.6798835,
      "lng": 120.4886944,
      "place_id": "ChIJOQ5K-5sXbjQRes6nJJmxia4",
      "address": "No. 130-2, Zhongxiao Rd, Pingtung City, Pingtung County, Taiwan 900"
    },
    {
      "id": "res-wp3-pif-ChIJkecMi3gabjQRlLM-1o_nIpc",
      "waypoint_id": "wp3-pif",
      "name": "Elegant Herb Garden",
      "diet_type": "restaurant",
      "price_tier": "cheap",
      "estimated_cost": 260,
      "lat": 22.6652887,
      "lng": 120.4121247,
      "place_id": "ChIJkecMi3gabjQRlLM-1o_nIpc",
      "address": "No. 45-5號, Lane 134, Zhongshan Rd, Dashu District, Kaohsiung City, Taiwan 840"
    },
    {
      "id": "res-wp3-pif-ChIJN1_Zk7wXbjQRjRrFvsyMyKQ",
      "waypoint_id": "wp3-pif",
      "name": "新享天風味家常菜",
      "diet_type": "restaurant",
      "price_tier": "cheap",
      "estimated_cost": 260,
      "lat": 22.6876347,
      "lng": 120.4946037,
      "place_id": "ChIJN1_Zk7wXbjQRjRrFvsyMyKQ",
      "address": "No. 16號, Beixing St, Pingtung City, Pingtung County, Taiwan 900"
    },
    {
      "id": "res-wp3-pif-ChIJlWyLb5QXbjQR4odmn8L_GR8",
      "waypoint_id": "wp3-pif",
      "name": "自然廚房健康素食",
      "diet_type": "restaurant",
      "price_tier": "cheap",
      "estimated_cost": 260,
      "lat": 22.6716204,
      "lng": 120.4982162,
      "place_id": "ChIJlWyLb5QXbjQR4odmn8L_GR8",
      "address": "No. 11號, Minxiang Rd, Pingtung City, Pingtung County, Taiwan 900"
    },
    {
      "id": "res-wp3-pif-ChIJZywg3xsRbjQRTa_j4-C_iuI",
      "waypoint_id": "wp3-pif",
      "name": "金色三麥 高雄義大店",
      "diet_type": "restaurant",
      "price_tier": "expensive",
      "estimated_cost": 420,
      "lat": 22.7303876,
      "lng": 120.402402,
      "place_id": "ChIJZywg3xsRbjQRTa_j4-C_iuI",
      "address": "840, Taiwan, Kaohsiung City, Dashu District, Section 1, Xuecheng Rd, 12號A區5F"
    },
    {
      "id": "res-wp3-pif-ChIJgVuDXBsRbjQRpazSVQG-9xU",
      "waypoint_id": "wp3-pif",
      "name": "義大皇家酒店星亞自助餐",
      "diet_type": "restaurant",
      "price_tier": "expensive",
      "estimated_cost": 420,
      "lat": 22.7295885,
      "lng": 120.4022921,
      "place_id": "ChIJgVuDXBsRbjQRpazSVQG-9xU",
      "address": "No. 153, Section 1, Xuecheng Rd, Dashu District, Kaohsiung City, Taiwan 840"
    },
    {
      "id": "res-wp3-pif-ChIJ-aCqShsRbjQR38U_FvCvgrY",
      "waypoint_id": "wp3-pif",
      "name": "E-DA Buffet Restaurant",
      "diet_type": "restaurant",
      "price_tier": "expensive",
      "estimated_cost": 420,
      "lat": 22.7307513,
      "lng": 120.4010968,
      "place_id": "ChIJ-aCqShsRbjQR38U_FvCvgrY",
      "address": "No. 100號, Yida 8th St, Dashu District, Kaohsiung City, Taiwan 840"
    },
    {
      "id": "res-wp3-pif-ChIJtYZ2G5kXbjQRV_kJgcwTiqA",
      "waypoint_id": "wp3-pif",
      "name": "大將日本料理",
      "diet_type": "restaurant",
      "price_tier": "expensive",
      "estimated_cost": 420,
      "lat": 22.6752746,
      "lng": 120.4878746,
      "place_id": "ChIJtYZ2G5kXbjQRV_kJgcwTiqA",
      "address": "No. 143, Xinyi Rd, Pingtung City, Pingtung County, Taiwan 900"
    },
    {
      "id": "res-wp3-pif-ChIJ0zwRNJwXbjQRTE4kg95_s7M",
      "waypoint_id": "wp3-pif",
      "name": "莎露眷味洋食",
      "diet_type": "restaurant",
      "price_tier": "expensive",
      "estimated_cost": 420,
      "lat": 22.6786416,
      "lng": 120.4850065,
      "place_id": "ChIJ0zwRNJwXbjQRTE4kg95_s7M",
      "address": "No. 104號, Qingdao St, Pingtung City, Pingtung County, Taiwan 900"
    },
    {
      "id": "res-wp3-pif-ChIJSXiBc58XbjQRhyzuxmWhW54",
      "waypoint_id": "wp3-pif",
      "name": "Chien-Yen Shabu Shabu",
      "diet_type": "restaurant",
      "price_tier": "expensive",
      "estimated_cost": 420,
      "lat": 22.6835036,
      "lng": 120.4847367,
      "place_id": "ChIJSXiBc58XbjQRhyzuxmWhW54",
      "address": "No. 17-1號, Taiyuan Rd, Pingtung City, Pingtung County, Taiwan 900"
    },
    {
      "id": "res-wp3-ttt-ChIJg4Rnlj25bzQRDZPlzIYbDcw",
      "waypoint_id": "wp3-ttt",
      "name": "FamilyMart Taitung Zhonghua",
      "diet_type": "convenience-store",
      "price_tier": "standard",
      "estimated_cost": 180,
      "lat": 22.7504951,
      "lng": 121.1495048,
      "place_id": "ChIJg4Rnlj25bzQRDZPlzIYbDcw",
      "address": "No. 575號, Section 1, Zhonghua Rd, Taitung City, Taitung County, Taiwan 950"
    },
    {
      "id": "res-wp3-ttt-ChIJ4QRTTAO5bzQR94J6XfwgtT0",
      "waypoint_id": "wp3-ttt",
      "name": "7-Eleven",
      "diet_type": "convenience-store",
      "price_tier": "standard",
      "estimated_cost": 180,
      "lat": 22.743616,
      "lng": 121.1363507,
      "place_id": "ChIJ4QRTTAO5bzQR94J6XfwgtT0",
      "address": "No. 272.274.276號, Section 2, Zhonghua Rd, Taitung City, Taitung County, Taiwan 950"
    },
    {
      "id": "res-wp3-ttt-ChIJN6l02RC5bzQRIw1-XAeZz-w",
      "waypoint_id": "wp3-ttt",
      "name": "7-ELEVEN 東佳門市",
      "diet_type": "convenience-store",
      "price_tier": "standard",
      "estimated_cost": 180,
      "lat": 22.7509895,
      "lng": 121.1415348,
      "place_id": "ChIJN6l02RC5bzQRIw1-XAeZz-w",
      "address": "No. 178,180,182號, Zhangsha St, Taitung City, Taitung County, Taiwan 950"
    },
    {
      "id": "res-wp3-ttt-ChIJvyk2nwW5bzQR1MIjEDY-GV0",
      "waypoint_id": "wp3-ttt",
      "name": "7-ELEVEN 冠美門市",
      "diet_type": "convenience-store",
      "price_tier": "standard",
      "estimated_cost": 180,
      "lat": 22.7492899,
      "lng": 121.1336089,
      "place_id": "ChIJvyk2nwW5bzQR1MIjEDY-GV0",
      "address": "950, Taiwan, Taitung County, Taitung City, 豐榮里仁昌街148號"
    },
    {
      "id": "res-wp3-ttt-ChIJd99fDKa5bzQR6EqgwqYhCiw",
      "waypoint_id": "wp3-ttt",
      "name": "7-ELEVEN 東樂門市",
      "diet_type": "convenience-store",
      "price_tier": "standard",
      "estimated_cost": 180,
      "lat": 22.7538176,
      "lng": 121.1176993,
      "place_id": "ChIJd99fDKa5bzQR6EqgwqYhCiw",
      "address": "No. 330號, Section 1, Shanxi Rd, Taitung City, Taitung County, Taiwan 950"
    },
    {
      "id": "res-wp3-ttt-ChIJWxpk-Bu5bzQRDwWqN2Rpzjc",
      "waypoint_id": "wp3-ttt",
      "name": "7-Eleven",
      "diet_type": "convenience-store",
      "price_tier": "standard",
      "estimated_cost": 180,
      "lat": 22.7456,
      "lng": 121.140977,
      "place_id": "ChIJWxpk-Bu5bzQRDwWqN2Rpzjc",
      "address": "No. 1號, Fengsheng Rd, Taitung City, Taitung County, Taiwan 950"
    },
    {
      "id": "res-wp3-ttt-ChIJC4Fzk4G5bzQR_CadTfELP2o",
      "waypoint_id": "wp3-ttt",
      "name": "金花軒卑南包仔店",
      "diet_type": "restaurant",
      "price_tier": "cheap",
      "estimated_cost": 180,
      "lat": 22.780098,
      "lng": 121.1236081,
      "place_id": "ChIJC4Fzk4G5bzQR_CadTfELP2o",
      "address": "No. 182號, Gengsheng N Rd, Taitung City, Taitung County, Taiwan 950"
    },
    {
      "id": "res-wp3-ttt-ChIJ2-3BbhW5bzQRm1fJc0K0Dps",
      "waypoint_id": "wp3-ttt",
      "name": "津芳冰城",
      "diet_type": "restaurant",
      "price_tier": "cheap",
      "estimated_cost": 180,
      "lat": 22.7564067,
      "lng": 121.1471361,
      "place_id": "ChIJ2-3BbhW5bzQRm1fJc0K0Dps",
      "address": "No. 358號, Zhengqi Rd, Taitung City, Taitung County, Taiwan 950"
    },
    {
      "id": "res-wp3-ttt-ChIJk4BVUxW5bzQRztysy2nDH5s",
      "waypoint_id": "wp3-ttt",
      "name": "Walkabout Cafe'",
      "diet_type": "restaurant",
      "price_tier": "cheap",
      "estimated_cost": 260,
      "lat": 22.7580869,
      "lng": 121.147516,
      "place_id": "ChIJk4BVUxW5bzQRztysy2nDH5s",
      "address": "No. 113號, Nanjing Rd, Taitung City, Taitung County, Taiwan 950"
    },
    {
      "id": "res-wp3-ttt-ChIJn7BvmT65bzQRSPCCzre7fpM",
      "waypoint_id": "wp3-ttt",
      "name": "Ah Hung Fried Chicken - Zhengqi",
      "diet_type": "restaurant",
      "price_tier": "cheap",
      "estimated_cost": 260,
      "lat": 22.7521644,
      "lng": 121.1519745,
      "place_id": "ChIJn7BvmT65bzQRSPCCzre7fpM",
      "address": "No. 163號, Zhengqi Rd, Taitung City, Taitung County, Taiwan 950"
    },
    {
      "id": "res-wp3-ttt-ChIJZR7t4Gi5bzQRyS7Xtb7VNa0",
      "waypoint_id": "wp3-ttt",
      "name": "米巴奈山地美食坊",
      "diet_type": "restaurant",
      "price_tier": "cheap",
      "estimated_cost": 260,
      "lat": 22.7671091,
      "lng": 121.1440439,
      "place_id": "ChIJZR7t4Gi5bzQRyS7Xtb7VNa0",
      "address": "No. 470號, Chuanguang Rd, Taitung City, Taitung County, Taiwan 950"
    },
    {
      "id": "res-wp3-ttt-ChIJ7aP3jDi5bzQREuVXoUd_qs0",
      "waypoint_id": "wp3-ttt",
      "name": "台東古早味寶桑豆花",
      "diet_type": "restaurant",
      "price_tier": "cheap",
      "estimated_cost": 180,
      "lat": 22.7516013,
      "lng": 121.1526292,
      "place_id": "ChIJ7aP3jDi5bzQREuVXoUd_qs0",
      "address": "No. 115號, Zhengqi Rd, Taitung City, Taitung County, Taiwan 950"
    },
    {
      "id": "res-wp3-ttt-ChIJUxi_Ij-5bzQRgRbprIGY3SU",
      "waypoint_id": "wp3-ttt",
      "name": "春日部日本家庭料理",
      "diet_type": "restaurant",
      "price_tier": "expensive",
      "estimated_cost": 420,
      "lat": 22.7549638,
      "lng": 121.1524001,
      "place_id": "ChIJUxi_Ij-5bzQRgRbprIGY3SU",
      "address": "No. 37號, Lane 376, Section 1, Zhonghua Rd, Taitung City, Taitung County, Taiwan 95063"
    },
    {
      "id": "res-wp3-ttt-ChIJ_6S0RD-5bzQRb0IfD7r4vF4",
      "waypoint_id": "wp3-ttt",
      "name": "Taitung big wheels Japanese Restaurant",
      "diet_type": "restaurant",
      "price_tier": "expensive",
      "estimated_cost": 420,
      "lat": 22.756478,
      "lng": 121.15238,
      "place_id": "ChIJ_6S0RD-5bzQRb0IfD7r4vF4",
      "address": "950No. 287號, Zhongzheng Rd, Taitung City, Taitung County, Taiwan 950"
    },
    {
      "id": "res-wp3-ttt-ChIJiT1_VBS5bzQRamlMTMgxPDM",
      "waypoint_id": "wp3-ttt",
      "name": "歐鄉牛排館台東店",
      "diet_type": "restaurant",
      "price_tier": "expensive",
      "estimated_cost": 420,
      "lat": 22.755541,
      "lng": 121.14511,
      "place_id": "ChIJiT1_VBS5bzQRamlMTMgxPDM",
      "address": "950, Taiwan, Taitung County, Taitung City, Xinsheng Rd, 268-1號1樓"
    },
    {
      "id": "res-wp3-ttt-ChIJOTwdTpy5bzQRID879MFbR2Y",
      "waypoint_id": "wp3-ttt",
      "name": "台東娜路彎中庭咖啡廳",
      "diet_type": "restaurant",
      "price_tier": "expensive",
      "estimated_cost": 420,
      "lat": 22.7701328,
      "lng": 121.1220204,
      "place_id": "ChIJOTwdTpy5bzQRID879MFbR2Y",
      "address": "No. 66, Lianhang Rd, Taitung City, Taitung County, Taiwan 95065"
    },
    {
      "id": "res-wp3-ttt-ChIJC4Fzk4G5bzQR_CadTfELP2o",
      "waypoint_id": "wp3-ttt",
      "name": "金花軒卑南包仔店",
      "diet_type": "restaurant",
      "price_tier": "expensive",
      "estimated_cost": 420,
      "lat": 22.780098,
      "lng": 121.1236081,
      "place_id": "ChIJC4Fzk4G5bzQR_CadTfELP2o",
      "address": "No. 182號, Gengsheng N Rd, Taitung City, Taitung County, Taiwan 950"
    },
    {
      "id": "res-wp3-ttt-ChIJ2-3BbhW5bzQRm1fJc0K0Dps",
      "waypoint_id": "wp3-ttt",
      "name": "津芳冰城",
      "diet_type": "restaurant",
      "price_tier": "expensive",
      "estimated_cost": 420,
      "lat": 22.7564067,
      "lng": 121.1471361,
      "place_id": "ChIJ2-3BbhW5bzQRm1fJc0K0Dps",
      "address": "No. 358號, Zhengqi Rd, Taitung City, Taitung County, Taiwan 950"
    }
  ]
}