{
  "Routes": [
    {
      "id": "west-corridor-1",
      "name": "西部走廊（台北→高雄）",
      "type": "west-corridor",
      "recommended_days": 4,
      "supported_start_stations": [
        "台北車站",
        "台中車站",
        "高雄車站"
      ]
    }
  ],
  "Waypoints": [
    {
      "id": "wp-tpe",
      "name": "台北車站",
      "lat": 25.048,
      "lng": 121.517
    },
    {
      "id": "wp-tch",
      "name": "台中車站",
      "lat": 24.137,
      "lng": 120.685
    },
    {
      "id": "wp-khh",
      "name": "高雄車站",
      "lat": 22.6394,
      "lng": 120.3024
    }
  ],
  "Accommodations": [
    {
      "id": "acc-wp-tpe-ChIJcVAVGN8daDQRfpUYwS9Qz80",
      "waypoint_id": "wp-tpe",
      "name": "HUB HOTEL New Taipei Tucheng",
      "subType": "hotel",
      "budget_tier": "mid",
      "price_per_night": 3500,
      "lat": 24.9751325,
      "lng": 121.4433138,
      "place_id": "ChIJcVAVGN8daDQRfpUYwS9Qz80",
      "address": "No. 30號, Zhongzheng Rd, Tucheng District, New Taipei City, Taiwan 23670"
    },
    {
      "id": "acc-wp-tpe-ChIJYQfvOgGqQjQRtU2wKsfUKFs",
      "waypoint_id": "wp-tpe",
      "name": "MACCHI HOTEL",
      "subType": "hotel",
      "budget_tier": "mid",
      "price_per_night": 3500,
      "lat": 24.9925337,
      "lng": 121.5419734,
      "place_id": "ChIJYQfvOgGqQjQRtU2wKsfUKFs",
      "address": "116, Taiwan, Taipei City, Wenshan District, Lane 30, Jingzhong St, 6號3樓"
    },
    {
      "id": "acc-wp-tpe-ChIJ78YPKQapQjQRfoWgW_w0hvs",
      "waypoint_id": "wp-tpe",
      "name": "MEANDER Taipei",
      "subType": "hotel",
      "budget_tier": "mid",
      "price_per_night": 3500,
      "lat": 25.0438561,
      "lng": 121.5024958,
      "place_id": "ChIJ78YPKQapQjQRfoWgW_w0hvs",
      "address": "No. 163號, Chengdu Rd, Wanhua District, Taipei City, Taiwan 108"
    },
    {
      "id": "acc-wp-tpe-ChIJAaMjLISpQjQRgjsXYfrppMY",
      "waypoint_id": "wp-tpe",
      "name": "GoodMore Hotel Shida",
      "subType": "hotel",
      "budget_tier": "mid",
      "price_per_night": 3500,
      "lat": 25.0266799,
      "lng": 121.5307666,
      "place_id": "ChIJAaMjLISpQjQRgjsXYfrppMY",
      "address": "No. 147, Section 1, Heping E Rd, Da’an District, Taipei City, Taiwan 106"
    },
    {
      "id": "acc-wp-tpe-ChIJKdSZ1l6rQjQRNRvjeQEShYI",
      "waypoint_id": "wp-tpe",
      "name": "五月家青旅南港館 May Rooms Taipei Nangang Station",
      "subType": "hotel",
      "budget_tier": "mid",
      "price_per_night": 3500,
      "lat": 25.054863,
      "lng": 121.610733,
      "place_id": "ChIJKdSZ1l6rQjQRNRvjeQEShYI",
      "address": "115, Taiwan, Taipei City, Nangang District, Section 1, Nangang Rd, 229號2~3樓"
    },
    {
      "id": "acc-wp-tpe-ChIJYYlAJMOrQjQRhqAdXkuBwNM",
      "waypoint_id": "wp-tpe",
      "name": "苓旅松山小巨蛋館 Lininn Tapei Arena",
      "subType": "hotel",
      "budget_tier": "mid",
      "price_per_night": 3500,
      "lat": 25.0480475,
      "lng": 121.5493701,
      "place_id": "ChIJYYlAJMOrQjQRhqAdXkuBwNM",
      "address": "105, Taiwan, Taipei City, Songshan District, Section 3, Bade Rd, 2號14樓"
    },
    {
      "id": "acc-wp-tpe-ChIJdSAt3N-rQjQRkQe4KjgCDPQ",
      "waypoint_id": "wp-tpe",
      "name": "Backpackers Hostel",
      "subType": "hostel",
      "budget_tier": "low",
      "price_per_night": 1400,
      "lat": 25.0540886,
      "lng": 121.5389021,
      "place_id": "ChIJdSAt3N-rQjQRkQe4KjgCDPQ",
      "address": "104, Taiwan, Taipei City, Zhongshan District, 長春路258巷6號2樓"
    },
    {
      "id": "acc-wp-tpe-ChIJf13gasqrQjQRJooPlaBpbBs",
      "waypoint_id": "wp-tpe",
      "name": "Work Inn 101",
      "subType": "hostel",
      "budget_tier": "low",
      "price_per_night": 1400,
      "lat": 25.0316862,
      "lng": 121.5585582,
      "place_id": "ChIJf13gasqrQjQRJooPlaBpbBs",
      "address": "No. 48號, Section 2, Keelung Rd, Xinyi District, Taipei City, Taiwan 110"
    },
    {
      "id": "acc-wp-tpe-ChIJgbk4XQypQjQR5H4__hbUwsk",
      "waypoint_id": "wp-tpe",
      "name": "Fun Inn Taipei",
      "subType": "hostel",
      "budget_tier": "low",
      "price_per_night": 1400,
      "lat": 25.045725,
      "lng": 121.510765,
      "place_id": "ChIJgbk4XQypQjQR5H4__hbUwsk",
      "address": "100, Taiwan, Taipei City, Zhongzheng District, Yanping S Rd, 21號2樓"
    },
    {
      "id": "acc-wp-tpe-ChIJsR3iR3OpQjQRx5LtKxOCMN8",
      "waypoint_id": "wp-tpe",
      "name": "Cavemen Hostel",
      "subType": "hostel",
      "budget_tier": "low",
      "price_per_night": 1400,
      "lat": 25.0446517,
      "lng": 121.514883,
      "place_id": "ChIJsR3iR3OpQjQRx5LtKxOCMN8",
      "address": "100, Taiwan, Taipei City, Zhongzheng District, Guanqian Rd, 34號7樓"
    },
    {
      "id": "acc-wp-tpe-ChIJ4aoS9UipQjQRwpFPTeM7nBI",
      "waypoint_id": "wp-tpe",
      "name": "Meeting Mates",
      "subType": "hostel",
      "budget_tier": "low",
      "price_per_night": 1400,
      "lat": 25.0358182,
      "lng": 121.5032812,
      "place_id": "ChIJ4aoS9UipQjQRwpFPTeM7nBI",
      "address": "No. 316號, Kunming St, Wanhua District, Taipei City, Taiwan 108014"
    },
    {
      "id": "acc-wp-tpe-ChIJMcRF226pQjQROAXjU3mhU-I",
      "waypoint_id": "wp-tpe",
      "name": "LuckyOne Hostel",
      "subType": "hostel",
      "budget_tier": "low",
      "price_per_night": 1400,
      "lat": 25.0659775,
      "lng": 121.5179107,
      "place_id": "ChIJMcRF226pQjQROAXjU3mhU-I",
      "address": "No. 1, Changji St, Datong District, Taipei City, Taiwan 103"
    },
    {
      "id": "acc-wp-tch-ChIJ5bj9nPM9aTQRE6C61czFYMs",
      "waypoint_id": "wp-tch",
      "name": "Hotel Hesper HSR Taichung",
      "subType": "hotel",
      "budget_tier": "mid",
      "price_per_night": 3500,
      "lat": 24.104142,
      "lng": 120.6240532,
      "place_id": "ChIJ5bj9nPM9aTQRE6C61czFYMs",
      "address": "No. 255號, Xinxing Rd, Wuri District, Taichung City, Taiwan 41457"
    },
    {
      "id": "acc-wp-tch-ChIJjbixK-wWaTQRUc5nmaFa3Ec",
      "waypoint_id": "wp-tch",
      "name": "台中威汀城市酒店",
      "subType": "hotel",
      "budget_tier": "mid",
      "price_per_night": 3500,
      "lat": 24.2263831,
      "lng": 120.6480768,
      "place_id": "ChIJjbixK-wWaTQRUc5nmaFa3Ec",
      "address": "42866, Taiwan, Taichung City, Daya District, Section 1, Minsheng Rd, 100號6樓"
    },
    {
      "id": "acc-wp-tch-ChIJbQn0eugXaTQRgJTvLMCXnBY",
      "waypoint_id": "wp-tch",
      "name": "Taichung Charming City Hotel",
      "subType": "hotel",
      "budget_tier": "mid",
      "price_per_night": 3500,
      "lat": 24.1719994,
      "lng": 120.6914264,
      "place_id": "ChIJbQn0eugXaTQRgJTvLMCXnBY",
      "address": "No. 50號, Liuyang E St, Beitun District, Taichung City, Taiwan 406"
    },
    {
      "id": "acc-wp-tch-ChIJw4G4AsMXaTQRCFqVvDwCjqA",
      "waypoint_id": "wp-tch",
      "name": "Zhong Ke Hotel",
      "subType": "hotel",
      "budget_tier": "mid",
      "price_per_night": 3500,
      "lat": 24.174796,
      "lng": 120.6860409,
      "place_id": "ChIJw4G4AsMXaTQRCFqVvDwCjqA",
      "address": "No. 256號, Section 2, Chongde Rd, Beitun District, Taichung City, Taiwan 406"
    },
    {
      "id": "acc-wp-tch-ChIJrx1ijZM9aTQRk_4dmnIzDt4",
      "waypoint_id": "wp-tch",
      "name": "三好行旅SUN HAO HOTEL. TAICHUNG",
      "subType": "hotel",
      "budget_tier": "mid",
      "price_per_night": 3500,
      "lat": 24.155271,
      "lng": 120.6472,
      "place_id": "ChIJrx1ijZM9aTQRk_4dmnIzDt4",
      "address": "No. 552號, Section 1, Wenxin Rd, Nantun District, Taichung City, Taiwan 408"
    },
    {
      "id": "acc-wp-tch-ChIJqaH5PRo9aTQRL-aImwlFa4k",
      "waypoint_id": "wp-tch",
      "name": "Trans Inn 傳思文旅",
      "subType": "hotel",
      "budget_tier": "mid",
      "price_per_night": 3500,
      "lat": 24.1295877,
      "lng": 120.6822737,
      "place_id": "ChIJqaH5PRo9aTQRL-aImwlFa4k",
      "address": "No. 150號, Zhongxiao Rd, South District, Taichung City, Taiwan 402"
    },
    {
      "id": "acc-wp-tch-ChIJqQQnzSA-aTQRusUJXwA6Dz0",
      "waypoint_id": "wp-tch",
      "name": "T-Life Hostel",
      "subType": "hostel",
      "budget_tier": "low",
      "price_per_night": 1400,
      "lat": 24.1799555,
      "lng": 120.5895692,
      "place_id": "ChIJqQQnzSA-aTQRusUJXwA6Dz0",
      "address": "No. 10號, Lane 27, Xinxing Rd, Longjing District, Taichung City, Taiwan 43442"
    },
    {
      "id": "acc-wp-tch-ChIJwQ90ohM9aTQRuoaxGuMqQQU",
      "waypoint_id": "wp-tch",
      "name": "Backpack 41 Youth Hostel - Taichung",
      "subType": "hostel",
      "budget_tier": "low",
      "price_per_night": 1400,
      "lat": 24.1384691,
      "lng": 120.6818094,
      "place_id": "ChIJwQ90ohM9aTQRuoaxGuMqQQU",
      "address": "No. 59號, Jiguang St, Central District, Taichung City, Taiwan 400"
    },
    {
      "id": "acc-wp-tch-ChIJZ9n6fVg9aTQRt_uCN3R8j0U",
      "waypoint_id": "wp-tch",
      "name": "GetCha Hostel & Bistro",
      "subType": "hostel",
      "budget_tier": "low",
      "price_per_night": 1400,
      "lat": 24.1541537,
      "lng": 120.6871191,
      "place_id": "ChIJZ9n6fVg9aTQRt_uCN3R8j0U",
      "address": "No. 166號, Yizhong St, North District, Taichung City, Taiwan 404"
    },
    {
      "id": "acc-wp-tch-ChIJi6n4s549aTQRkUFxmqU9t5U",
      "waypoint_id": "wp-tch",
      "name": "Stray Birds",
      "subType": "hostel",
      "budget_tier": "low",
      "price_per_night": 1400,
      "lat": 24.150698,
      "lng": 120.6605911,
      "place_id": "ChIJi6n4s549aTQRkUFxmqU9t5U",
      "address": "403, Taiwan, Taichung City, West District, Gongyi Rd, 201號8樓"
    },
    {
      "id": "acc-wp-tch-ChIJ--86UCc-aTQRSx7lqSCM3O0",
      "waypoint_id": "wp-tch",
      "name": "框框背包客棧（幾何住宿 1館）｜出差住宿・可報帳｜合法民宿登記字號 094｜Kuang Kuang Hostel｜Business Stay",
      "subType": "hostel",
      "budget_tier": "low",
      "price_per_night": 1400,
      "lat": 24.182539,
      "lng": 120.590629,
      "place_id": "ChIJ--86UCc-aTQRSx7lqSCM3O0",
      "address": "No. 56號, Alley 62, Lane 3, Section 5, Taiwan Blvd, Longjing District, Taichung City, Taiwan 434"
    },
    {
      "id": "acc-wp-tch-ChIJS2kDtdA9aTQRrHkR460leYg",
      "waypoint_id": "wp-tch",
      "name": "小鹿 Homestay",
      "subType": "hostel",
      "budget_tier": "low",
      "price_per_night": 1400,
      "lat": 24.1538584,
      "lng": 120.6876784,
      "place_id": "ChIJS2kDtdA9aTQRrHkR460leYg",
      "address": "404, Taiwan, Taichung City, North District, Yizhong St, 162-26號3樓"
    },
    {
      "id": "acc-wp-khh-ChIJ423mdu4DbjQRzDCb1y6qmtw",
      "waypoint_id": "wp-khh",
      "name": "旗津道沙灘酒店 In Young Hotel",
      "subType": "hotel",
      "budget_tier": "mid",
      "price_per_night": 3500,
      "lat": 22.610369,
      "lng": 120.268195,
      "place_id": "ChIJ423mdu4DbjQRzDCb1y6qmtw",
      "address": "805, Taiwan, Kaohsiung City, Qijin District, Qijin 3rd Rd, 1050號3樓"
    },
    {
      "id": "acc-wp-khh-ChIJC7eBmSkdbjQRTfn4OvKzK8E",
      "waypoint_id": "wp-khh",
      "name": "Orange House Business hotel",
      "subType": "hotel",
      "budget_tier": "mid",
      "price_per_night": 3500,
      "lat": 22.563437,
      "lng": 120.348139,
      "place_id": "ChIJC7eBmSkdbjQRTfn4OvKzK8E",
      "address": "812, Taiwan, Kaohsiung City, Siaogang District, Daye N Rd, 300號 No. 300號"
    },
    {
      "id": "acc-wp-khh-ChIJfRpPbAQFbjQRVh9-e2HIy50",
      "waypoint_id": "wp-khh",
      "name": "Long Siang Hotel",
      "subType": "hotel",
      "budget_tier": "mid",
      "price_per_night": 3500,
      "lat": 22.6643753,
      "lng": 120.3047256,
      "place_id": "ChIJfRpPbAQFbjQRVh9-e2HIy50",
      "address": "No. 75號, Liwen Rd, Zuoying District, Kaohsiung City, Taiwan 813"
    },
    {
      "id": "acc-wp-khh-ChIJAXvzvDkbbjQRQ5GYGYi_CI0",
      "waypoint_id": "wp-khh",
      "name": "麗馨精品商旅鳳山館",
      "subType": "hotel",
      "budget_tier": "mid",
      "price_per_night": 3500,
      "lat": 22.629618,
      "lng": 120.357087,
      "place_id": "ChIJAXvzvDkbbjQRQ5GYGYi_CI0",
      "address": "No. 77號, Caogong Rd, Fengshan District, Kaohsiung City, Taiwan 830"
    },
    {
      "id": "acc-wp-khh-ChIJ-49FB9UcbjQR-M9pKewQEqc",
      "waypoint_id": "wp-khh",
      "name": "Kaohsiung International Club",
      "subType": "hotel",
      "budget_tier": "mid",
      "price_per_night": 3500,
      "lat": 22.5659992,
      "lng": 120.3464873,
      "place_id": "ChIJ-49FB9UcbjQR-M9pKewQEqc",
      "address": "No. 436, Daye N Rd, Siaogang District, Kaohsiung City, Taiwan 812"
    },
    {
      "id": "acc-wp-khh-ChIJmVvOYdocbjQRhpHhu_aA4cw",
      "waypoint_id": "wp-khh",
      "name": "The Riverside Hotel International",
      "subType": "hotel",
      "budget_tier": "mid",
      "price_per_night": 3500,
      "lat": 22.5697074,
      "lng": 120.3563511,
      "place_id": "ChIJmVvOYdocbjQRhpHhu_aA4cw",
      "address": "No. 447號, Hongping Rd, Siaogang District, Kaohsiung City, Taiwan 812"
    },
    {
      "id": "acc-wp-khh-ChIJn386Yn0DbjQRmNUpk9tKvUs",
      "waypoint_id": "wp-khh",
      "name": "旅悅 國際青年旅館 DreamWell Hostel | Kaohsiung | Hotel | 住宿",
      "subType": "hostel",
      "budget_tier": "low",
      "price_per_night": 1400,
      "lat": 22.614619,
      "lng": 120.307044,
      "place_id": "ChIJn386Yn0DbjQRmNUpk9tKvUs",
      "address": "806, Taiwan, Kaohsiung City, Cianjhen District, Sanduo 3rd Rd, 211號3樓"
    },
    {
      "id": "acc-wp-khh-ChIJWfc89fkEbjQRpg7BLJTCZq4",
      "waypoint_id": "wp-khh",
      "name": "Paper Plane Hostel",
      "subType": "hostel",
      "budget_tier": "low",
      "price_per_night": 1400,
      "lat": 22.649068,
      "lng": 120.303062,
      "place_id": "ChIJWfc89fkEbjQRpg7BLJTCZq4",
      "address": "80743, Taiwan, Kaohsiung City, Sanmin District, 博愛一路287號10樓"
    },
    {
      "id": "acc-wp-khh-ChIJlRSb5n0DbjQRAqUdKHN0LGg",
      "waypoint_id": "wp-khh",
      "name": "飛行家青年旅館FLYINN HOSTEL",
      "subType": "hostel",
      "budget_tier": "low",
      "price_per_night": 1400,
      "lat": 22.6143622,
      "lng": 120.3035645,
      "place_id": "ChIJlRSb5n0DbjQRAqUdKHN0LGg",
      "address": "802, Taiwan, Kaohsiung City, Lingya District, Renyi St, 2-4號目前已無提供早餐。 （旅店非24小時服務，訂房請於服務時間早上7:30-晚上11:00間來電"
    },
    {
      "id": "acc-wp-khh-ChIJ7Qi5E4IEbjQRpVHVgpwP44k",
      "waypoint_id": "wp-khh",
      "name": "Backpacker 41 Hostel - Kaohsiung",
      "subType": "hostel",
      "budget_tier": "low",
      "price_per_night": 1400,
      "lat": 22.6161429,
      "lng": 120.3042166,
      "place_id": "ChIJ7Qi5E4IEbjQRpVHVgpwP44k",
      "address": "No. 39, Lane 261, Siweisan Rd, Lingya District, Kaohsiung City, Taiwan 802"
    },
    {
      "id": "acc-wp-khh-ChIJYUQKz_QEbjQRnF1JesGbK9M",
      "waypoint_id": "wp-khh",
      "name": "巢鴨青年館",
      "subType": "hostel",
      "budget_tier": "low",
      "price_per_night": 1400,
      "lat": 22.6391111,
      "lng": 120.3006551,
      "place_id": "ChIJYUQKz_QEbjQRnF1JesGbK9M",
      "address": "No. 19-3號, Lane 46, Jianguosan Rd, Sanmin District, Kaohsiung City, Taiwan 807"
    },
    {
      "id": "acc-wp-khh-ChIJ3_E8J4wEbjQRaCjWDiZB6KA",
      "waypoint_id": "wp-khh",
      "name": "Master Chitow Hostel",
      "subType": "hostel",
      "budget_tier": "low",
      "price_per_night": 1400,
      "lat": 22.6313904,
      "lng": 120.3051692,
      "place_id": "ChIJ3_E8J4wEbjQRaCjWDiZB6KA",
      "address": "No. 128號, Zhongzheng 3rd Rd, Sinsing District, Kaohsiung City, Taiwan 800"
    }
  ],
  "Restaurants": [
    {
      "id": "res-wp-tpe-ChIJxT_5liiqQjQRIRAjhBovWZg",
      "waypoint_id": "wp-tpe",
      "name": "FamilyMart Jianguo Store",
      "diet_type": "convenience-store",
      "price_tier": "standard",
      "estimated_cost": 180,
      "lat": 25.0286541,
      "lng": 121.5392682,
      "place_id": "ChIJxT_5liiqQjQRIRAjhBovWZg",
      "address": "No. 38號, Lane 151, Section 2, Jianguo S Rd, Da’an District, Taipei City, Taiwan 106"
    },
    {
      "id": "res-wp-tpe-ChIJDbLTX3SpQjQRMv4iHweAtVg",
      "waypoint_id": "wp-tpe",
      "name": "7-ELEVEN 千成門市",
      "diet_type": "convenience-store",
      "price_tier": "standard",
      "estimated_cost": 180,
      "lat": 25.0437443,
      "lng": 121.5228958,
      "place_id": "ChIJDbLTX3SpQjQRMv4iHweAtVg",
      "address": "100, Taiwan, Taipei City, Zhongzheng District, Linsen S Rd, 4號之3"
    },
    {
      "id": "res-wp-tpe-ChIJNYAeBS6qQjQRGxLyaBqKmUo",
      "waypoint_id": "wp-tpe",
      "name": "I-Mei Foods",
      "diet_type": "convenience-store",
      "price_tier": "standard",
      "estimated_cost": 180,
      "lat": 25.0245093,
      "lng": 121.5477139,
      "place_id": "ChIJNYAeBS6qQjQRGxLyaBqKmUo",
      "address": "106, Taiwan, Taipei City, Da’an District, 和平東路三段40號"
    },
    {
      "id": "res-wp-tpe-ChIJg4ye9ZmuQjQRvCKukXnsYLA",
      "waypoint_id": "wp-tpe",
      "name": "7-ELEVEN 新忠誠門市",
      "diet_type": "convenience-store",
      "price_tier": "standard",
      "estimated_cost": 180,
      "lat": 25.1040319,
      "lng": 121.5267539,
      "place_id": "ChIJg4ye9ZmuQjQRvCKukXnsYLA",
      "address": "111, Taiwan, Taipei City, Shilin District, 中山北路六段18號 20號1樓"
    },
    {
      "id": "res-wp-tpe-ChIJ2_5vAEJTXTQR4_OsmN5O73U",
      "waypoint_id": "wp-tpe",
      "name": "7-ELEVEN 欣安和門市",
      "diet_type": "convenience-store",
      "price_tier": "standard",
      "estimated_cost": 180,
      "lat": 25.0385958,
      "lng": 121.550994,
      "place_id": "ChIJ2_5vAEJTXTQR4_OsmN5O73U",
      "address": "No. 47號, Section 1, Anhe Rd, Da’an District, Taipei City, Taiwan 106"
    },
    {
      "id": "res-wp-tpe-ChIJ--PYUaOuQjQRlu8aftMBjOc",
      "waypoint_id": "wp-tpe",
      "name": "7-ELEVEN 福捷門市",
      "diet_type": "convenience-store",
      "price_tier": "standard",
      "estimated_cost": 180,
      "lat": 25.094736,
      "lng": 121.525911,
      "place_id": "ChIJ--PYUaOuQjQRlu8aftMBjOc",
      "address": "No. 14號, Lane 235, Zhongzheng Rd, Shilin District, Taipei City, Taiwan 111"
    },
    {
      "id": "res-wp-tpe-ChIJX10H1gipQjQRfmZjnra3znU",
      "waypoint_id": "wp-tpe",
      "name": "amba Taipei Ximending",
      "diet_type": "restaurant",
      "price_tier": "cheap",
      "estimated_cost": 260,
      "lat": 25.0451762,
      "lng": 121.5056699,
      "place_id": "ChIJX10H1gipQjQRfmZjnra3znU",
      "address": "No. 77號, Section 2, Wuchang St, Wanhua District, Taipei City, Taiwan 108"
    },
    {
      "id": "res-wp-tpe-ChIJjRzzCaipQjQRzNo88d0xnbo",
      "waypoint_id": "wp-tpe",
      "name": "SUNWAY",
      "diet_type": "restaurant",
      "price_tier": "cheap",
      "estimated_cost": 260,
      "lat": 25.039885,
      "lng": 121.5026538,
      "place_id": "ChIJjRzzCaipQjQRzNo88d0xnbo",
      "address": "No. 116號, Section 2, Guiyang St, Wanhua District, Taipei City, Taiwan 108"
    },
    {
      "id": "res-wp-tpe-ChIJU0w5SdGrQjQRYugzBai1GgU",
      "waypoint_id": "wp-tpe",
      "name": "The Howard Plaza Hotel Taipei",
      "diet_type": "restaurant",
      "price_tier": "cheap",
      "estimated_cost": 260,
      "lat": 25.0374653,
      "lng": 121.5429725,
      "place_id": "ChIJU0w5SdGrQjQRYugzBai1GgU",
      "address": "No. 160號, Section 3, Ren'ai Rd, Da’an District, Taipei City, Taiwan 106"
    },
    {
      "id": "res-wp-tpe-ChIJvVB1v0apQjQRRIK-G1haUW8",
      "waypoint_id": "wp-tpe",
      "name": "Santos Hotel",
      "diet_type": "restaurant",
      "price_tier": "cheap",
      "estimated_cost": 260,
      "lat": 25.0648482,
      "lng": 121.518555,
      "place_id": "ChIJvVB1v0apQjQRRIK-G1haUW8",
      "address": "103, Taiwan, Taipei City, Datong District, Section 3, Chengde Rd, 49號捷運 : 淡水線(紅)/中蘆線(橘民權西路站1號出口(有電扶梯)：步行約５分鐘即可到達"
    },
    {
      "id": "res-wp-tpe-ChIJ15RhJXOpQjQR9KORWgjDPr8",
      "waypoint_id": "wp-tpe",
      "name": "Coffee Alley (Zhanqian Branch)",
      "diet_type": "restaurant",
      "price_tier": "cheap",
      "estimated_cost": 260,
      "lat": 25.045466,
      "lng": 121.5148084,
      "place_id": "ChIJ15RhJXOpQjQR9KORWgjDPr8",
      "address": "100, Taiwan, Taipei City, Zhongzheng District, Guanqian Rd, 18號2樓"
    },
    {
      "id": "res-wp-tpe-ChIJMSvxi-epQjQR6kLpzDTtNLQ",
      "waypoint_id": "wp-tpe",
      "name": "Shijie Soymilk King",
      "diet_type": "restaurant",
      "price_tier": "cheap",
      "estimated_cost": 180,
      "lat": 25.0154903,
      "lng": 121.5161145,
      "place_id": "ChIJMSvxi-epQjQR6kLpzDTtNLQ",
      "address": "No. 284號, Section 2, Yonghe Rd, Yonghe District, New Taipei City, Taiwan 234"
    },
    {
      "id": "res-wp-tpe-ChIJp9P5QW-pQjQRQ3GSoHy4ijU",
      "waypoint_id": "wp-tpe",
      "name": "Dragon Restaurant",
      "diet_type": "restaurant",
      "price_tier": "expensive",
      "estimated_cost": 420,
      "lat": 25.0503539,
      "lng": 121.5244483,
      "place_id": "ChIJp9P5QW-pQjQRQ3GSoHy4ijU",
      "address": "No. 18-1號, Lane 105, Section 1, Zhongshan N Rd, Zhongshan District, Taipei City, Taiwan 10491"
    },
    {
      "id": "res-wp-tpe-ChIJ_3AKcP2rQjQRG-FBsLE_NWY",
      "waypoint_id": "wp-tpe",
      "name": "Addiction Aquatic Development",
      "diet_type": "restaurant",
      "price_tier": "expensive",
      "estimated_cost": 420,
      "lat": 25.0667079,
      "lng": 121.5370059,
      "place_id": "ChIJ_3AKcP2rQjQRG-FBsLE_NWY",
      "address": "No. 18號, Alley 2, Lane 410, Minzu E Rd, Zhongshan District, Taipei City, Taiwan 10491"
    },
    {
      "id": "res-wp-tpe-ChIJf3pxrGmpQjQRX2eGPcFCreg",
      "waypoint_id": "wp-tpe",
      "name": "CHAMONIX Taipei Zhongshan North Branch",
      "diet_type": "restaurant",
      "price_tier": "expensive",
      "estimated_cost": 420,
      "lat": 25.0552849,
      "lng": 121.5223714,
      "place_id": "ChIJf3pxrGmpQjQRX2eGPcFCreg",
      "address": "No. 44號, Section 2, Zhongshan N Rd, Zhongshan District, Taipei City, Taiwan 10491"
    },
    {
      "id": "res-wp-tpe-ChIJJVBTsHGpQjQRaCf_yDIMgJo",
      "waypoint_id": "wp-tpe",
      "name": "台北喜來登大飯店－十二廚 Kitchen 12",
      "diet_type": "restaurant",
      "price_tier": "expensive",
      "estimated_cost": 420,
      "lat": 25.0446184,
      "lng": 121.5220051,
      "place_id": "ChIJJVBTsHGpQjQRaCf_yDIMgJo",
      "address": "100, Taiwan, Taipei City, Zhongzheng District, Section 1, Zhongxiao E Rd, 12號1樓"
    },
    {
      "id": "res-wp-tpe-ChIJtT-8VKOpQjQRRpmHnNwXNog",
      "waypoint_id": "wp-tpe",
      "name": "SHIN TUNG NAN SEAFOOD Tingzhou Branch",
      "diet_type": "restaurant",
      "price_tier": "expensive",
      "estimated_cost": 420,
      "lat": 25.0289418,
      "lng": 121.5087358,
      "place_id": "ChIJtT-8VKOpQjQRRpmHnNwXNog",
      "address": "No. 105, Section 1, Tingzhou Rd, Zhongzheng District, Taipei City, Taiwan 100"
    },
    {
      "id": "res-wp-tpe-ChIJ7yfd_82rQjQRFHc6dSL-vVA",
      "waypoint_id": "wp-tpe",
      "name": "Seasons Garden Restaurant",
      "diet_type": "restaurant",
      "price_tier": "expensive",
      "estimated_cost": 420,
      "lat": 25.0353196,
      "lng": 121.5484757,
      "place_id": "ChIJ7yfd_82rQjQRFHc6dSL-vVA",
      "address": "106, Taiwan, Taipei City, Da’an District, 敦化南路1段324號B1"
    },
    {
      "id": "res-wp-tch-ChIJUwXEsBI9aTQR6f6nbG-VKDg",
      "waypoint_id": "wp-tch",
      "name": "萬益食品-中山總店 台中名產 千層豆干 豬肉干 牛肉干",
      "diet_type": "convenience-store",
      "price_tier": "standard",
      "estimated_cost": 180,
      "lat": 24.1418169,
      "lng": 120.6785047,
      "place_id": "ChIJUwXEsBI9aTQR6f6nbG-VKDg",
      "address": "No. 213號, Zhongshan Rd, Central District, Taichung City, Taiwan 400"
    },
    {
      "id": "res-wp-tch-ChIJv3JCsJY9aTQRfR-Jyk7dnbY",
      "waypoint_id": "wp-tch",
      "name": "7-ELEVEN 墩業門市",
      "diet_type": "convenience-store",
      "price_tier": "standard",
      "estimated_cost": 180,
      "lat": 24.153495,
      "lng": 120.6495541,
      "place_id": "ChIJv3JCsJY9aTQRfR-Jyk7dnbY",
      "address": "No. 717-5號, Dadun Rd, Nantun District, Taichung City, Taiwan 408"
    },
    {
      "id": "res-wp-tch-ChIJsdgbR2Y9aTQRUQl6x8rzQe4",
      "waypoint_id": "wp-tch",
      "name": "7-ELEVEN 錦新門市",
      "diet_type": "convenience-store",
      "price_tier": "standard",
      "estimated_cost": 180,
      "lat": 24.1531662,
      "lng": 120.6868481,
      "place_id": "ChIJsdgbR2Y9aTQRUQl6x8rzQe4",
      "address": "404, Taiwan, Taichung City, North District, Jinxin St, 70-2號 70-3號號及一中街136-2號136-6號"
    },
    {
      "id": "res-wp-tch-ChIJ19yOgg09aTQROnAwLcYlSpM",
      "waypoint_id": "wp-tch",
      "name": "FamilyMart",
      "diet_type": "convenience-store",
      "price_tier": "standard",
      "estimated_cost": 180,
      "lat": 24.1406262,
      "lng": 120.6762712,
      "place_id": "ChIJ19yOgg09aTQROnAwLcYlSpM",
      "address": "No. 199號, Section 1, Sanmin Rd, West District, Taichung City, Taiwan 403"
    },
    {
      "id": "res-wp-tch-ChIJfbxrrNcXaTQRlDXCxOY9QT0",
      "waypoint_id": "wp-tch",
      "name": "FamilyMart",
      "diet_type": "convenience-store",
      "price_tier": "standard",
      "estimated_cost": 180,
      "lat": 24.1667105,
      "lng": 120.6748894,
      "place_id": "ChIJfbxrrNcXaTQRlDXCxOY9QT0",
      "address": "404, Taiwan, Taichung City, North District, Section 4, Hankou Rd, 56號58 60"
    },
    {
      "id": "res-wp-tch-ChIJzZ10Q8E9aTQRE0BdVlOggPc",
      "waypoint_id": "wp-tch",
      "name": "7-ELEVEN 黎明東門市",
      "diet_type": "convenience-store",
      "price_tier": "standard",
      "estimated_cost": 180,
      "lat": 24.1428002,
      "lng": 120.6389167,
      "place_id": "ChIJzZ10Q8E9aTQRE0BdVlOggPc",
      "address": "No. 22號, Liming E St, Nantun District, Taichung City, Taiwan 408"
    },
    {
      "id": "res-wp-tch-ChIJq6wyH4I9aTQRsq11XdW5J9U",
      "waypoint_id": "wp-tch",
      "name": "阿裕壽司",
      "diet_type": "restaurant",
      "price_tier": "cheap",
      "estimated_cost": 180,
      "lat": 24.1610072,
      "lng": 120.6647793,
      "place_id": "ChIJq6wyH4I9aTQRsq11XdW5J9U",
      "address": "No. 361號, Section 1, Xitun Rd, North District, Taichung City, Taiwan 404"
    },
    {
      "id": "res-wp-tch-ChIJvSg3UKY9aTQRqJ6fZroTNCA",
      "waypoint_id": "wp-tch",
      "name": "Walnut's Castle",
      "diet_type": "restaurant",
      "price_tier": "cheap",
      "estimated_cost": 260,
      "lat": 24.1372224,
      "lng": 120.6624767,
      "place_id": "ChIJvSg3UKY9aTQRqJ6fZroTNCA",
      "address": "No. 61號, Wuquan West 4th St, West District, Taichung City, Taiwan 403"
    },
    {
      "id": "res-wp-tch-ChIJ9chyaJQ9aTQRJSxWcuMUfP4",
      "waypoint_id": "wp-tch",
      "name": "Cafe Grazie Taichung Carrefour Wenxin Branch",
      "diet_type": "restaurant",
      "price_tier": "cheap",
      "estimated_cost": 260,
      "lat": 24.1545123,
      "lng": 120.6463828,
      "place_id": "ChIJ9chyaJQ9aTQRJSxWcuMUfP4",
      "address": "1樓, No. 521號, Section 1, Wenxin Rd, Nantun District, Taichung City, Taiwan 408"
    },
    {
      "id": "res-wp-tch-ChIJ1X3jKvQ9aTQR6gQpEwSHf2o",
      "waypoint_id": "wp-tch",
      "name": "Hung's Mansion",
      "diet_type": "restaurant",
      "price_tier": "cheap",
      "estimated_cost": 260,
      "lat": 24.1698322,
      "lng": 120.637352,
      "place_id": "ChIJ1X3jKvQ9aTQR6gQpEwSHf2o",
      "address": "No. 593號, Taiwan Blvd Sec 3, Xitun District, Taichung City, Taiwan 407"
    },
    {
      "id": "res-wp-tch-ChIJvaydyW49aTQRQx2UuOjv2_0",
      "waypoint_id": "wp-tch",
      "name": "三時茶房［ 杏仁茶杏仁豆腐專賣店 ］",
      "diet_type": "restaurant",
      "price_tier": "cheap",
      "estimated_cost": 180,
      "lat": 24.1481946,
      "lng": 120.6828375,
      "place_id": "ChIJvaydyW49aTQRQx2UuOjv2_0",
      "address": "No. 11號, Lane 107, Taiping Rd, North District, Taichung City, Taiwan 404"
    },
    {
      "id": "res-wp-tch-ChIJtbEtpd4XaTQRlya2voQyALk",
      "waypoint_id": "wp-tch",
      "name": "Tripodking Taichung Hankou Branch",
      "diet_type": "restaurant",
      "price_tier": "cheap",
      "estimated_cost": 260,
      "lat": 24.1671944,
      "lng": 120.684198,
      "place_id": "ChIJtbEtpd4XaTQRlya2voQyALk",
      "address": "No. 385號, Section 4, Hankou Rd, North District, Taichung City, Taiwan 404"
    },
    {
      "id": "res-wp-tch-ChIJKxSaqYw9aTQR9DWkkKFhtiY",
      "waypoint_id": "wp-tch",
      "name": "Very Thai Restaurant",
      "diet_type": "restaurant",
      "price_tier": "expensive",
      "estimated_cost": 420,
      "lat": 24.1637002,
      "lng": 120.6446167,
      "place_id": "ChIJKxSaqYw9aTQR9DWkkKFhtiY",
      "address": "407, Taiwan, Taichung City, Xitun District, Taiwan Blvd Sec 3, 251號11樓號北棟"
    },
    {
      "id": "res-wp-tch-ChIJuQq4-JY9aTQRZLpsXEkkIdE",
      "waypoint_id": "wp-tch",
      "name": "Tripod King (Gong Yi Rd. Store)",
      "diet_type": "restaurant",
      "price_tier": "expensive",
      "estimated_cost": 420,
      "lat": 24.1510378,
      "lng": 120.6511871,
      "place_id": "ChIJuQq4-JY9aTQRZLpsXEkkIdE",
      "address": "No. 42號, Section 2, Gongyi Rd, Nantun District, Taichung City, Taiwan 408"
    },
    {
      "id": "res-wp-tch-ChIJ5Yg_mJU9aTQRa2Tfk_cWz8M",
      "waypoint_id": "wp-tch",
      "name": "Umai Zhonggang Branch",
      "diet_type": "restaurant",
      "price_tier": "expensive",
      "estimated_cost": 420,
      "lat": 24.165793,
      "lng": 120.644615,
      "place_id": "ChIJ5Yg_mJU9aTQRa2Tfk_cWz8M",
      "address": "407, Taiwan, Taichung City, Xitun District, Taiwan Blvd Sec 3, 300號1樓"
    },
    {
      "id": "res-wp-tch-ChIJkTvbKZ09aTQR_x1CRMSRurY",
      "waypoint_id": "wp-tch",
      "name": "台中金典酒店-栢麗廳",
      "diet_type": "restaurant",
      "price_tier": "expensive",
      "estimated_cost": 420,
      "lat": 24.1559456,
      "lng": 120.6632836,
      "place_id": "ChIJkTvbKZ09aTQR_x1CRMSRurY",
      "address": "403, Taiwan, Taichung City, West District, Jianxing Rd, 1049號12樓"
    },
    {
      "id": "res-wp-tch-ChIJ85mb1Xc9aTQRcZ285mnLMUU",
      "waypoint_id": "wp-tch",
      "name": "CHAMONIX Taichung Dalong Branch",
      "diet_type": "restaurant",
      "price_tier": "expensive",
      "estimated_cost": 420,
      "lat": 24.155197,
      "lng": 120.654565,
      "place_id": "ChIJ85mb1Xc9aTQRcZ285mnLMUU",
      "address": "No. 43號, Dalong Road, West District, Taichung City, Taiwan 403"
    },
    {
      "id": "res-wp-tch-ChIJefZ5ouo9aTQR9s_rLf_NF0s",
      "waypoint_id": "wp-tch",
      "name": "羊角炭火燒肉文心店",
      "diet_type": "restaurant",
      "price_tier": "expensive",
      "estimated_cost": 420,
      "lat": 24.168696,
      "lng": 120.655498,
      "place_id": "ChIJefZ5ouo9aTQR9s_rLf_NF0s",
      "address": "No. 186號, Section 3, Wenxin Rd, Xitun District, Taichung City, Taiwan 407"
    },
    {
      "id": "res-wp-khh-ChIJW8ThIHYEbjQR8k12HL3R1uY",
      "waypoint_id": "wp-khh",
      "name": "The Pier2 Art Center",
      "diet_type": "convenience-store",
      "price_tier": "standard",
      "estimated_cost": 180,
      "lat": 22.6199803,
      "lng": 120.2815287,
      "place_id": "ChIJW8ThIHYEbjQR8k12HL3R1uY",
      "address": "No. 1號, Dayong Rd, Yancheng District, Kaohsiung City, Taiwan 803"
    },
    {
      "id": "res-wp-khh-ChIJE6IXZ4cEbjQRHrZL1TcpsAI",
      "waypoint_id": "wp-khh",
      "name": "Family Mart",
      "diet_type": "convenience-store",
      "price_tier": "standard",
      "estimated_cost": 180,
      "lat": 22.6235598,
      "lng": 120.2978971,
      "place_id": "ChIJE6IXZ4cEbjQRHrZL1TcpsAI",
      "address": "No. 21號, Jhonghua 3rd Rd, Qianjin District, Kaohsiung City, Taiwan 801"
    },
    {
      "id": "res-wp-khh-ChIJXbGKVWIEbjQR_54ZUuSjycA",
      "waypoint_id": "wp-khh",
      "name": "全家便利商店-高雄榮安店",
      "diet_type": "convenience-store",
      "price_tier": "standard",
      "estimated_cost": 180,
      "lat": 22.6308156,
      "lng": 120.2933387,
      "place_id": "ChIJXbGKVWIEbjQR_54ZUuSjycA",
      "address": "No. 60號, Ziqiang 1st Rd, Qianjin District, Kaohsiung City, Taiwan 801"
    },
    {
      "id": "res-wp-khh-ChIJ4ZN-0WcEbjQRc8vsKCql1D4",
      "waypoint_id": "wp-khh",
      "name": "7-ELEVEN 中都門市",
      "diet_type": "convenience-store",
      "price_tier": "standard",
      "estimated_cost": 180,
      "lat": 22.6381866,
      "lng": 120.2864072,
      "place_id": "ChIJ4ZN-0WcEbjQRc8vsKCql1D4",
      "address": "No. 248號, Lixing Rd, Sanmin District, Kaohsiung City, Taiwan 807"
    },
    {
      "id": "res-wp-khh-ChIJv6L-nJIEbjQR9sRH4mf17ak",
      "waypoint_id": "wp-khh",
      "name": "全家便利商店-高雄三鳳店",
      "diet_type": "convenience-store",
      "price_tier": "standard",
      "estimated_cost": 180,
      "lat": 22.634626,
      "lng": 120.2936561,
      "place_id": "ChIJv6L-nJIEbjQR9sRH4mf17ak",
      "address": "No. 251號, Jhonghua 3rd Rd, Qianjin District, Kaohsiung City, Taiwan 801"
    },
    {
      "id": "res-wp-khh-ChIJmzqsz3kEbjQRlvFtkTOBSvw",
      "waypoint_id": "wp-khh",
      "name": "FamilyMart my home",
      "diet_type": "convenience-store",
      "price_tier": "standard",
      "estimated_cost": 180,
      "lat": 22.6264188,
      "lng": 120.2805313,
      "place_id": "ChIJmzqsz3kEbjQRlvFtkTOBSvw",
      "address": "No. 238號, Sinle St, Yancheng District, Kaohsiung City, Taiwan 803"
    },
    {
      "id": "res-wp-khh-ChIJ6f7_VfQEbjQRRIah-5rBHjA",
      "waypoint_id": "wp-khh",
      "name": "驛站食堂",
      "diet_type": "restaurant",
      "price_tier": "cheap",
      "estimated_cost": 260,
      "lat": 22.64029,
      "lng": 120.3005824,
      "place_id": "ChIJ6f7_VfQEbjQRRIah-5rBHjA",
      "address": "No. 2號, Tianjin Street, Sanmin District, Kaohsiung City, Taiwan 807"
    },
    {
      "id": "res-wp-khh-ChIJe9864XAEbjQR87EJntDzgEY",
      "waypoint_id": "wp-khh",
      "name": "BOOKING",
      "diet_type": "restaurant",
      "price_tier": "cheap",
      "estimated_cost": 260,
      "lat": 22.6265605,
      "lng": 120.2833014,
      "place_id": "ChIJe9864XAEbjQR87EJntDzgEY",
      "address": "No. 177號, Lainan St, Yancheng District, Kaohsiung City, Taiwan 803"
    },
    {
      "id": "res-wp-khh-ChIJofinrosEbjQR9o7NocGLMU8",
      "waypoint_id": "wp-khh",
      "name": "韓國先生-春川店 한국선생-춘천",
      "diet_type": "restaurant",
      "price_tier": "cheap",
      "estimated_cost": 260,
      "lat": 22.6345642,
      "lng": 120.3006322,
      "place_id": "ChIJofinrosEbjQR9o7NocGLMU8",
      "address": "No. 33號, Cisian 2nd Rd, Sinsing District, Kaohsiung City, Taiwan 800"
    },
    {
      "id": "res-wp-khh-ChIJBVLASgAFbjQRblw6qQi7ypU",
      "waypoint_id": "wp-khh",
      "name": "老四川巴蜀麻辣燙-高雄南屏店",
      "diet_type": "restaurant",
      "price_tier": "cheap",
      "estimated_cost": 260,
      "lat": 22.6605838,
      "lng": 120.3001893,
      "place_id": "ChIJBVLASgAFbjQRblw6qQi7ypU",
      "address": "No. 585、587、589、591號, Nanping Rd, Gushan District, Kaohsiung City, Taiwan 804"
    },
    {
      "id": "res-wp-khh-ChIJA7wegIAEbjQRnlXRXTUuSW8",
      "waypoint_id": "wp-khh",
      "name": "BITE 2 EAT",
      "diet_type": "restaurant",
      "price_tier": "cheap",
      "estimated_cost": 260,
      "lat": 22.6195139,
      "lng": 120.3049085,
      "place_id": "ChIJA7wegIAEbjQRnlXRXTUuSW8",
      "address": "No. 105號, Wenheng 2nd Rd, Lingya District, Kaohsiung City, Taiwan 80241"
    },
    {
      "id": "res-wp-khh-ChIJn-aZvY4EbjQROGrJtAvcibw",
      "waypoint_id": "wp-khh",
      "name": "Hotel dùa",
      "diet_type": "restaurant",
      "price_tier": "cheap",
      "estimated_cost": 260,
      "lat": 22.6306778,
      "lng": 120.30445,
      "place_id": "ChIJn-aZvY4EbjQROGrJtAvcibw",
      "address": "No. 165號, Linsen 1st Rd, Sinsing District, Kaohsiung City, Taiwan 800"
    },
    {
      "id": "res-wp-khh-ChIJn-aZvY4EbjQReAIpQ_a9Imc",
      "waypoint_id": "wp-khh",
      "name": "悅品中餐廳-Hotel dùa 林森館",
      "diet_type": "restaurant",
      "price_tier": "expensive",
      "estimated_cost": 420,
      "lat": 22.6305569,
      "lng": 120.3043135,
      "place_id": "ChIJn-aZvY4EbjQReAIpQ_a9Imc",
      "address": "800, Taiwan, Kaohsiung City, Sinsing District, Linsen 1st Rd, 165號3F"
    },
    {
      "id": "res-wp-khh-ChIJh-Z5NIcEbjQRWlFKGoWEXIY",
      "waypoint_id": "wp-khh",
      "name": "Chamonix new Champs Teppanyaki _ Kaohsiung Wufu shop",
      "diet_type": "restaurant",
      "price_tier": "expensive",
      "estimated_cost": 420,
      "lat": 22.6219878,
      "lng": 120.2991991,
      "place_id": "ChIJh-Z5NIcEbjQRWlFKGoWEXIY",
      "address": "No. 29號, Wufu 3rd Rd, Qianjin District, Kaohsiung City, Taiwan 801"
    },
    {
      "id": "res-wp-khh-ChIJf9FA1AQFbjQR1tTgLbsSjEw",
      "waypoint_id": "wp-khh",
      "name": "Smokey Joe's Ziyou Branch",
      "diet_type": "restaurant",
      "price_tier": "expensive",
      "estimated_cost": 420,
      "lat": 22.665173,
      "lng": 120.30869,
      "place_id": "ChIJf9FA1AQFbjQR1tTgLbsSjEw",
      "address": "No. 318號, Ziyou 2nd Rd, Zuoying District, Kaohsiung City, Taiwan 813"
    },
    {
      "id": "res-wp-khh-ChIJv5byCVAEbjQRL1hitP0tQ-0",
      "waypoint_id": "wp-khh",
      "name": "PASADENA",
      "diet_type": "restaurant",
      "price_tier": "expensive",
      "estimated_cost": 420,
      "lat": 22.6513001,
      "lng": 120.2871327,
      "place_id": "ChIJv5byCVAEbjQRL1hitP0tQ-0",
      "address": "No. 167, Qinghai Rd, Gushan District, Kaohsiung City, Taiwan 804"
    },
    {
      "id": "res-wp-khh-ChIJEyQF3I0EbjQRlAzmu1ChFLs",
      "waypoint_id": "wp-khh",
      "name": "Wang Steak Kaohsiung Zhongzheng Branch",
      "diet_type": "restaurant",
      "price_tier": "expensive",
      "estimated_cost": 420,
      "lat": 22.6312667,
      "lng": 120.3071933,
      "place_id": "ChIJEyQF3I0EbjQRlAzmu1ChFLs",
      "address": "No. 88號, Zhongzheng 3rd Rd, Sinsing District, Kaohsiung City, Taiwan 800"
    },
    {
      "id": "res-wp-khh-ChIJE9mxjgEFbjQRZo6CdWyfRSw",
      "waypoint_id": "wp-khh",
      "name": "THE LIN",
      "diet_type": "restaurant",
      "price_tier": "expensive",
      "estimated_cost": 420,
      "lat": 22.6599254,
      "lng": 120.3025242,
      "place_id": "ChIJE9mxjgEFbjQRZo6CdWyfRSw",
      "address": "No. 99號, Bo-ai 2nd Rd, Gushan District, Kaohsiung City, Taiwan 804"
    }
  ]
}